[
  {
    "id": 12012,
    "name": "Ararat Airport",
    "city": "",
    "country": "Australia",
    "isoCountry": "Australia",
    "iata": "ARY",
    "icao": "YARA",
    "latitude": -37.30939865112305,
    "longitude": 142.98899841308594,
    "elevationFt": 1008,
    "type": "airport",
    "source": "OurAirports"
  },
  {
    "id": 11954,
    "name": "Belaya Gora Airport",
    "city": "",
    "country": "Russia",
    "isoCountry": "Russia",
    "iata": "BGN",
    "icao": "UESG",
    "latitude": 68.556602,
    "longitude": 146.231506,
    "elevationFt": 118,
    "type": "airport",
    "source": "OurAirports"
  },
  {
    "id": 12013,
    "name": "Benalla Airport",
    "city": "",
    "country": "Australia",
    "isoCountry": "Australia",
    "iata": "BLN",
    "icao": "YBLA",
    "latitude": -36.55189895629883,
    "longitude": 146.0070037841797,
    "elevationFt": 569,
    "type": "airport",
    "source": "OurAirports"
  },
  {
    "id": 11927,
    "name": "Bislig Airport",
    "city": "",
    "country": "Philippines",
    "isoCountry": "Philippines",
    "iata": "BPH",
    "icao": "RPMF",
    "latitude": 8.19594955444336,
    "longitude": 126.3219985961914,
    "elevationFt": 12,
    "type": "airport",
    "source": "OurAirports"
  },
  {
    "id": 12015,
    "name": "Brewarrina Airport",
    "city": "",
    "country": "Australia",
    "isoCountry": "Australia",
    "iata": "BWQ",
    "icao": "YBRW",
    "latitude": -29.973899841308594,
    "longitude": 146.81700134277344,
    "elevationFt": 414,
    "type": "airport",
    "source": "OurAirports"
  },
  {
    "id": 12014,
    "name": "Balranald Airport",
    "city": "",
    "country": "Australia",
    "isoCountry": "Australia",
    "iata": "BZD",
    "icao": "YBRN",
    "latitude": -34.623600006103516,
    "longitude": 143.5780029296875,
    "elevationFt": 210,
    "type": "airport",
    "source": "OurAirports"
  },
  {
    "id": 12019,
    "name": "Cootamundra Airport",
    "city": "",
    "country": "Australia",
    "isoCountry": "Australia",
    "iata": "CMD",
    "icao": "YCTM",
    "latitude": -34.6239013671875,
    "longitude": 148.0279998779297,
    "elevationFt": 1110,
    "type": "airport",
    "source": "OurAirports"
  },
  {
    "id": 12016,
    "name": "Cleve Airport",
    "city": "",
    "country": "Australia",
    "isoCountry": "Australia",
    "iata": "CVC",
    "icao": "YCEE",
    "latitude": -33.70970153808594,
    "longitude": 136.5050048828125,
    "elevationFt": 589,
    "type": "airport",
    "source": "OurAirports"
  },
  {
    "id": 12017,
    "name": "Corowa Airport",
    "city": "",
    "country": "Australia",
    "isoCountry": "Australia",
    "iata": "CWW",
    "icao": "YCOR",
    "latitude": -35.99470138549805,
    "longitude": 146.35699462890625,
    "elevationFt": 469,
    "type": "airport",
    "source": "OurAirports"
  },
  {
    "id": 12018,
    "name": "Corryong Airport",
    "city": "",
    "country": "Australia",
    "isoCountry": "Australia",
    "iata": "CYG",
    "icao": "YCRG",
    "latitude": -36.18280029296875,
    "longitude": 147.88800048828125,
    "elevationFt": 963,
    "type": "airport",
    "source": "OurAirports"
  },
  {
    "id": 12020,
    "name": "Dirranbandi Airport",
    "city": "",
    "country": "Australia",
    "isoCountry": "Australia",
    "iata": "DRN",
    "icao": "YDBI",
    "latitude": -28.591699600219727,
    "longitude": 148.2169952392578,
    "elevationFt": 567,
    "type": "airport",
    "source": "OurAirports"
  },
  {
    "id": 11900,
    "name": "King Salman Abdulaziz Airport",
    "city": "",
    "country": "Saudi Arabia",
    "isoCountry": "Saudi Arabia",
    "iata": "DWD",
    "icao": "OEDM",
    "latitude": 24.4499,
    "longitude": 44.121201,
    "elevationFt": 3026,
    "type": "airport",
    "source": "OurAirports"
  },
  {
    "id": 12022,
    "name": "Dysart Airport",
    "city": "",
    "country": "Australia",
    "isoCountry": "Australia",
    "iata": "DYA",
    "icao": "YDYS",
    "latitude": -22.62220001220703,
    "longitude": 148.36399841308594,
    "elevationFt": 670,
    "type": "airport",
    "source": "OurAirports"
  },
  {
    "id": 12023,
    "name": "Echuca Airport",
    "city": "",
    "country": "Australia",
    "isoCountry": "Australia",
    "iata": "ECH",
    "icao": "YECH",
    "latitude": -36.15719985961914,
    "longitude": 144.76199340820312,
    "elevationFt": 323,
    "type": "airport",
    "source": "OurAirports"
  },
  {
    "id": 12025,
    "name": "Gunnedah Airport",
    "city": "",
    "country": "Australia",
    "isoCountry": "Australia",
    "iata": "GUH",
    "icao": "YGDH",
    "latitude": -30.96109962463379,
    "longitude": 150.25100708007812,
    "elevationFt": 863,
    "type": "airport",
    "source": "OurAirports"
  },
  {
    "id": 12027,
    "name": "Hopetoun Airport",
    "city": "",
    "country": "Australia",
    "isoCountry": "Australia",
    "iata": "HTU",
    "icao": "YHPN",
    "latitude": -35.715301513671875,
    "longitude": 142.36000061035156,
    "elevationFt": 256,
    "type": "airport",
    "source": "OurAirports"
  },
  {
    "id": 12026,
    "name": "Hay Airport",
    "city": "",
    "country": "Australia",
    "isoCountry": "Australia",
    "iata": "HXX",
    "icao": "YHAY",
    "latitude": -34.53139877319336,
    "longitude": 144.8300018310547,
    "elevationFt": 305,
    "type": "airport",
    "source": "OurAirports"
  },
  {
    "id": 12030,
    "name": "Kingaroy Airport",
    "city": "",
    "country": "Australia",
    "isoCountry": "Australia",
    "iata": "KGY",
    "icao": "YKRY",
    "latitude": -26.580799102783203,
    "longitude": 151.84100341796875,
    "elevationFt": 1492,
    "type": "airport",
    "source": "OurAirports"
  },
  {
    "id": 11901,
    "name": "King Khaled Air Base",
    "city": "",
    "country": "Saudi Arabia",
    "isoCountry": "Saudi Arabia",
    "iata": "KMX",
    "icao": "OEKM",
    "latitude": 18.297300338745117,
    "longitude": 42.80350112915039,
    "elevationFt": 6778,
    "type": "airport",
    "source": "OurAirports"
  },
  {
    "id": 12029,
    "name": "Kempsey Airport",
    "city": "",
    "country": "Australia",
    "isoCountry": "Australia",
    "iata": "KPS",
    "icao": "YKMP",
    "latitude": -31.074399948120117,
    "longitude": 152.77000427246094,
    "elevationFt": 54,
    "type": "airport",
    "source": "OurAirports"
  },
  {
    "id": 12028,
    "name": "Kerang Airport",
    "city": "",
    "country": "Australia",
    "isoCountry": "Australia",
    "iata": "KRA",
    "icao": "YKER",
    "latitude": -35.751399993896484,
    "longitude": 143.93899536132812,
    "elevationFt": 254,
    "type": "airport",
    "source": "OurAirports"
  },
  {
    "id": 12032,
    "name": "Mareeba Airport",
    "city": "",
    "country": "Australia",
    "isoCountry": "Australia",
    "iata": "MRG",
    "icao": "YMBA",
    "latitude": -17.06920051574707,
    "longitude": 145.41900634765625,
    "elevationFt": 1560,
    "type": "airport",
    "source": "OurAirports"
  },
  {
    "id": 11928,
    "name": "Mati National Airport",
    "city": "",
    "country": "Philippines",
    "isoCountry": "Philippines",
    "iata": "MXI",
    "icao": "RPMQ",
    "latitude": 6.949091,
    "longitude": 126.27368,
    "elevationFt": 156,
    "type": "airport",
    "source": "OurAirports"
  },
  {
    "id": 12046,
    "name": "Young Airport",
    "city": "",
    "country": "Australia",
    "isoCountry": "Australia",
    "iata": "NGA",
    "icao": "YYNG",
    "latitude": -34.25559997558594,
    "longitude": 148.2480010986328,
    "elevationFt": 1267,
    "type": "airport",
    "source": "OurAirports"
  },
  {
    "id": 12035,
    "name": "Port Pirie Airport",
    "city": "",
    "country": "Australia",
    "isoCountry": "Australia",
    "iata": "PPI",
    "icao": "YPIR",
    "latitude": -33.23889923095703,
    "longitude": 137.9949951171875,
    "elevationFt": 40,
    "type": "airport",
    "source": "OurAirports"
  },
  {
    "id": 12034,
    "name": "Narromine Airport",
    "city": "",
    "country": "Australia",
    "isoCountry": "Australia",
    "iata": "QRM",
    "icao": "YNRM",
    "latitude": -32.214698791503906,
    "longitude": 148.22500610351562,
    "elevationFt": 782,
    "type": "airport",
    "source": "OurAirports"
  },
  {
    "id": 12043,
    "name": "Warren Airport",
    "city": "",
    "country": "Australia",
    "isoCountry": "Australia",
    "iata": "QRR",
    "icao": "YWRN",
    "latitude": -31.733299255371094,
    "longitude": 147.80299377441406,
    "elevationFt": 669,
    "type": "airport",
    "source": "OurAirports"
  },
  {
    "id": 12033,
    "name": "Ngukurr Airport",
    "city": "",
    "country": "Australia",
    "isoCountry": "Australia",
    "iata": "RPM",
    "icao": "YNGU",
    "latitude": -14.722800254821777,
    "longitude": 134.7469940185547,
    "elevationFt": 45,
    "type": "airport",
    "source": "OurAirports"
  },
  {
    "id": 11996,
    "name": "Ratnagiri Airport",
    "city": "",
    "country": "India",
    "isoCountry": "India",
    "iata": "RTC",
    "icao": "VARG",
    "latitude": 17.013599,
    "longitude": 73.327797,
    "elevationFt": 305,
    "type": "airport",
    "source": "OurAirports"
  },
  {
    "id": 12036,
    "name": "Smithton Airport",
    "city": "",
    "country": "Australia",
    "isoCountry": "Australia",
    "iata": "SIO",
    "icao": "YSMI",
    "latitude": -40.834999084472656,
    "longitude": 145.08399963378906,
    "elevationFt": 31,
    "type": "airport",
    "source": "OurAirports"
  },
  {
    "id": 12037,
    "name": "Snake Bay Airport",
    "city": "",
    "country": "Australia",
    "isoCountry": "Australia",
    "iata": "SNB",
    "icao": "YSNB",
    "latitude": -11.422800064086914,
    "longitude": 130.6540069580078,
    "elevationFt": 173,
    "type": "airport",
    "source": "OurAirports"
  },
  {
    "id": 12038,
    "name": "Stawell Airport",
    "city": "",
    "country": "Australia",
    "isoCountry": "Australia",
    "iata": "SWC",
    "icao": "YSWL",
    "latitude": -37.07170104980469,
    "longitude": 142.74099731445312,
    "elevationFt": 807,
    "type": "airport",
    "source": "OurAirports"
  },
  {
    "id": 12040,
    "name": "Tumut Airport",
    "city": "",
    "country": "Australia",
    "isoCountry": "Australia",
    "iata": "TUM",
    "icao": "YTMU",
    "latitude": -35.26279830932617,
    "longitude": 148.24099731445312,
    "elevationFt": 878,
    "type": "airport",
    "source": "OurAirports"
  },
  {
    "id": 12039,
    "name": "Tibooburra Airport",
    "city": "",
    "country": "Australia",
    "isoCountry": "Australia",
    "iata": "TYB",
    "icao": "YTIB",
    "latitude": -29.451099395751953,
    "longitude": 142.05799865722656,
    "elevationFt": 584,
    "type": "airport",
    "source": "OurAirports"
  },
  {
    "id": 12051,
    "name": "Baruun Urt Airport",
    "city": "",
    "country": "Mongolia",
    "isoCountry": "Mongolia",
    "iata": "UUN",
    "icao": "ZMBU",
    "latitude": 46.660301208496094,
    "longitude": 113.28500366210938,
    "elevationFt": 3205,
    "type": "airport",
    "source": "OurAirports"
  },
  {
    "id": 11984,
    "name": "Volgodonsk Airport",
    "city": "",
    "country": "Russia",
    "isoCountry": "Russia",
    "iata": "VLK",
    "icao": "URRY",
    "latitude": 47.682098388671875,
    "longitude": 42.07279968261719,
    "elevationFt": 276,
    "type": "airport",
    "source": "OurAirports"
  },
  {
    "id": 12041,
    "name": "Wangaratta Airport",
    "city": "",
    "country": "Australia",
    "isoCountry": "Australia",
    "iata": "WGT",
    "icao": "YWGT",
    "latitude": -36.41579818725586,
    "longitude": 146.3070068359375,
    "elevationFt": 504,
    "type": "airport",
    "source": "OurAirports"
  },
  {
    "id": 12042,
    "name": "Warracknabeal Airport",
    "city": "",
    "country": "Australia",
    "isoCountry": "Australia",
    "iata": "WKB",
    "icao": "YWKB",
    "latitude": -36.32109832763672,
    "longitude": 142.41900634765625,
    "elevationFt": 397,
    "type": "airport",
    "source": "OurAirports"
  },
  {
    "id": 14092,
    "name": "Xingcheng Air Base",
    "city": "",
    "country": "China",
    "isoCountry": "China",
    "iata": "XEN",
    "icao": "ZYXC",
    "latitude": 40.580299377399996,
    "longitude": 120.697998047,
    "elevationFt": 30,
    "type": "airport",
    "source": "OurAirports"
  },
  {
    "id": 8404,
    "name": "South Cariboo Region / 108 Mile Airport",
    "city": "108 Mile Ranch",
    "country": "Canada",
    "isoCountry": "Canada",
    "iata": "ZMH",
    "icao": "CZML",
    "latitude": 51.736099243199995,
    "longitude": -121.333000183,
    "elevationFt": 3126,
    "timezone": "America/Vancouver",
    "tzOffsetHours": -8,
    "dst": "A",
    "type": "airport",
    "source": "OurAirports"
  },
  {
    "id": 4165,
    "name": "Aachen-Merzbrück Airport",
    "city": "Aachen",
    "country": "Germany",
    "isoCountry": "Germany",
    "iata": "AAH",
    "icao": "EDKA",
    "latitude": 50.823055267333984,
    "longitude": 6.186388969421387,
    "elevationFt": 623,
    "timezone": "Europe/Berlin",
    "tzOffsetHours": 1,
    "dst": "E",
    "type": "airport",
    "source": "OurAirports"
  },
  {
    "id": 628,
    "name": "Aalborg Airport",
    "city": "Aalborg",
    "country": "Denmark",
    "isoCountry": "Denmark",
    "iata": "AAL",
    "icao": "EKYT",
    "latitude": 57.0927589138,
    "longitude": 9.84924316406,
    "elevationFt": 10,
    "timezone": "Europe/Copenhagen",
    "tzOffsetHours": 1,
    "dst": "E",
    "type": "airport",
    "source": "OurAirports"
  },
  {
    "id": 607,
    "name": "Aarhus Airport",
    "city": "Aarhus",
    "country": "Denmark",
    "isoCountry": "Denmark",
    "iata": "AAR",
    "icao": "EKAH",
    "latitude": 56.2999992371,
    "longitude": 10.619000434899998,
    "elevationFt": 82,
    "timezone": "Europe/Copenhagen",
    "tzOffsetHours": 1,
    "dst": "E",
    "type": "airport",
    "source": "OurAirports"
  },
  {
    "id": 3997,
    "name": "Aasiaat Airport",
    "city": "Aasiaat",
    "country": "Greenland",
    "isoCountry": "Greenland",
    "iata": "JEG",
    "icao": "BGAA",
    "latitude": 68.7218017578,
    "longitude": -52.7846984863,
    "elevationFt": 74,
    "timezone": "America/Godthab",
    "tzOffsetHours": -3,
    "dst": "E",
    "type": "airport",
    "source": "OurAirports"
  },
  {
    "id": 2097,
    "name": "Abadan Airport",
    "city": "Abadan",
    "country": "Iran",
    "isoCountry": "Iran",
    "iata": "ABD",
    "icao": "OIAA",
    "latitude": 30.371099472,
    "longitude": 48.2282981873,
    "elevationFt": 10,
    "timezone": "Asia/Tehran",
    "tzOffsetHours": 3.5,
    "dst": "E",
    "type": "airport",
    "source": "OurAirports"
  },
  {
    "id": 7320,
    "name": "Abaiang Airport",
    "city": "Abaiang Atoll",
    "country": "Kiribati",
    "isoCountry": "Kiribati",
    "iata": "ABF",
    "icao": "NGAB",
    "latitude": 1.798609972000122,
    "longitude": 173.04100036621094,
    "elevationFt": 0,
    "timezone": "Pacific/Tarawa",
    "tzOffsetHours": 12,
    "dst": "U",
    "type": "airport",
    "source": "OurAirports"
  },
  {
    "id": 2955,
    "name": "Abakan Airport",
    "city": "Abakan",
    "country": "Russia",
    "isoCountry": "Russia",
    "iata": "ABA",
    "icao": "UNAA",
    "latitude": 53.7400016784668,
    "longitude": 91.38500213623047,
    "elevationFt": 831,
    "timezone": "Asia/Krasnoyarsk",
    "tzOffsetHours": 7,
    "dst": "N",
    "type": "airport",
    "source": "OurAirports"
  },
  {
    "id": 1372,
    "name": "Abbeville",
    "city": "Abbeville",
    "country": "France",
    "isoCountry": "France",
    "iata": "XAB",
    "icao": "LFOI",
    "latitude": 50.143501,
    "longitude": 1.831891,
    "elevationFt": 220,
    "timezone": "Europe/Paris",
    "tzOffsetHours": 1,
    "dst": "E",
    "type": "airport",
    "source": "OurAirports"
  },
  {
    "id": 175,
    "name": "Abbotsford Airport",
    "city": "Abbotsford",
    "country": "Canada",
    "isoCountry": "Canada",
    "iata": "YXX",
    "icao": "CYXX",
    "latitude": 49.025299072265625,
    "longitude": -122.36100006103516,
    "elevationFt": 195,
    "timezone": "America/Vancouver",
    "tzOffsetHours": -8,
    "dst": "A",
    "type": "airport",
    "source": "OurAirports"
  },
  {
    "id": 997,
    "name": "Abeche Airport",
    "city": "Abeche",
    "country": "Chad",
    "isoCountry": "Chad",
    "iata": "AEH",
    "icao": "FTTC",
    "latitude": 13.847000122070312,
    "longitude": 20.84429931640625,
    "elevationFt": 1788,
    "timezone": "Africa/Ndjamena",
    "tzOffsetHours": 1,
    "dst": "N",
    "type": "airport",
    "source": "OurAirports"
  },
  {
    "id": 7590,
    "name": "Abemama Atoll Airport",
    "city": "Abemama",
    "country": "Kiribati",
    "isoCountry": "Kiribati",
    "iata": "AEA",
    "icao": "NGTB",
    "latitude": 0.49083301424980164,
    "longitude": 173.82899475097656,
    "elevationFt": 8,
    "timezone": "Pacific/Tarawa",
    "tzOffsetHours": 12,
    "dst": "U",
    "type": "airport",
    "source": "OurAirports"
  },
  {
    "id": 5714,
    "name": "Aberdeen Regional Airport",
    "city": "Aberdeen",
    "country": "United States",
    "isoCountry": "United States",
    "iata": "ABR",
    "icao": "KABR",
    "latitude": 45.449100494384766,
    "longitude": -98.42179870605469,
    "elevationFt": 1302,
    "timezone": "America/Chicago",
    "tzOffsetHours": -6,
    "dst": "A",
    "type": "airport",
    "source": "OurAirports"
  },
  {
    "id": 532,
    "name": "Aberdeen Dyce Airport",
    "city": "Aberdeen",
    "country": "United Kingdom",
    "isoCountry": "United Kingdom",
    "iata": "ABZ",
    "icao": "EGPD",
    "latitude": 57.201900482177734,
    "longitude": -2.197779893875122,
    "elevationFt": 215,
    "timezone": "Europe/London",
    "tzOffsetHours": 0,
    "dst": "E",
    "type": "airport",
    "source": "OurAirports"
  },
  {
    "id": 3772,
    "name": "Phillips Army Air Field",
    "city": "Aberdeen",
    "country": "United States",
    "isoCountry": "United States",
    "iata": "APG",
    "icao": "KAPG",
    "latitude": 39.466202,
    "longitude": -76.1688,
    "elevationFt": 57,
    "timezone": "America/New_York",
    "tzOffsetHours": -5,
    "dst": "A",
    "type": "airport",
    "source": "OurAirports"
  },
  {
    "id": 2059,
    "name": "Abha Regional Airport",
    "city": "Abha",
    "country": "Saudi Arabia",
    "isoCountry": "Saudi Arabia",
    "iata": "AHB",
    "icao": "OEAB",
    "latitude": 18.240400314299997,
    "longitude": 42.65660095210001,
    "elevationFt": 6858,
    "timezone": "Asia/Riyadh",
    "tzOffsetHours": 3,
    "dst": "U",
    "type": "airport",
    "source": "OurAirports"
  },
  {
    "id": 253,
    "name": "Port Bouet Airport",
    "city": "Abidjan",
    "country": "Cote d'Ivoire",
    "isoCountry": "Cote d'Ivoire",
    "iata": "ABJ",
    "icao": "DIAP",
    "latitude": 5.261390209197998,
    "longitude": -3.9262900352478027,
    "elevationFt": 21,
    "timezone": "Africa/Abidjan",
    "tzOffsetHours": 0,
    "dst": "N",
    "type": "airport",
    "source": "OurAirports"
  },
  {
    "id": 3718,
    "name": "Abilene Regional Airport",
    "city": "Abilene",
    "country": "United States",
    "isoCountry": "United States",
    "iata": "ABI",
    "icao": "KABI",
    "latitude": 32.4113006592,
    "longitude": -99.68190002440001,
    "elevationFt": 1791,
    "timezone": "America/Chicago",
    "tzOffsetHours": -6,
    "dst": "A",
    "type": "airport",
    "source": "OurAirports"
  },
  {
    "id": 3695,
    "name": "Dyess Air Force Base",
    "city": "Abilene",
    "country": "United States",
    "isoCountry": "United States",
    "iata": "DYS",
    "icao": "KDYS",
    "latitude": 32.4207992554,
    "longitude": -99.854598999,
    "elevationFt": 1789,
    "timezone": "America/Chicago",
    "tzOffsetHours": -6,
    "dst": "A",
    "type": "airport",
    "source": "OurAirports"
  },
  {
    "id": 5893,
    "name": "Mota Lava Airport",
    "city": "Ablow",
    "country": "Vanuatu",
    "isoCountry": "Vanuatu",
    "iata": "MTV",
    "icao": "NVSA",
    "latitude": -13.6660003662,
    "longitude": 167.712005615,
    "elevationFt": 63,
    "timezone": "Pacific/Efate",
    "tzOffsetHours": 11,
    "dst": "U",
    "type": "airport",
    "source": "OurAirports"
  },
  {
    "id": 2179,
    "name": "Abu Dhabi International Airport",
    "city": "Abu Dhabi",
    "country": "United Arab Emirates",
    "isoCountry": "United Arab Emirates",
    "iata": "AUH",
    "icao": "OMAA",
    "latitude": 24.433000564575195,
    "longitude": 54.651100158691406,
    "elevationFt": 88,
    "timezone": "Asia/Dubai",
    "tzOffsetHours": 4,
    "dst": "U",
    "type": "airport",
    "source": "OurAirports"
  },
  {
    "id": 2180,
    "name": "Bateen Airport",
    "city": "Abu Dhabi",
    "country": "United Arab Emirates",
    "isoCountry": "United Arab Emirates",
    "iata": "AZI",
    "icao": "OMAD",
    "latitude": 24.428300857543945,
    "longitude": 54.458099365234375,
    "elevationFt": 16,
    "timezone": "Asia/Dubai",
    "tzOffsetHours": 4,
    "dst": "U",
    "type": "airport",
    "source": "OurAirports"
  },
  {
    "id": 2184,
    "name": "Al Dhafra Air Base",
    "city": "Abu Dhabi",
    "country": "United Arab Emirates",
    "isoCountry": "United Arab Emirates",
    "iata": "DHF",
    "icao": "OMAM",
    "latitude": 24.248199462900004,
    "longitude": 54.547698974599996,
    "elevationFt": 77,
    "timezone": "Asia/Dubai",
    "tzOffsetHours": 4,
    "dst": "U",
    "type": "airport",
    "source": "OurAirports"
  },
  {
    "id": 1127,
    "name": "Abu Simbel Airport",
    "city": "Abu Simbel",
    "country": "Egypt",
    "isoCountry": "Egypt",
    "iata": "ABS",
    "icao": "HEBL",
    "latitude": 22.375999450699997,
    "longitude": 31.611700058,
    "elevationFt": 616,
    "timezone": "Africa/Cairo",
    "tzOffsetHours": 2,
    "dst": "U",
    "type": "airport",
    "source": "OurAirports"
  },
  {
    "id": 260,
    "name": "Nnamdi Azikiwe International Airport",
    "city": "Abuja",
    "country": "Nigeria",
    "isoCountry": "Nigeria",
    "iata": "ABV",
    "icao": "DNAA",
    "latitude": 9.006790161132812,
    "longitude": 7.263169765472412,
    "elevationFt": 1123,
    "timezone": "Africa/Lagos",
    "tzOffsetHours": 1,
    "dst": "N",
    "type": "airport",
    "source": "OurAirports"
  },
  {
    "id": 2105,
    "name": "Abu Musa Island Airport",
    "city": "Abumusa I.",
    "country": "Iran",
    "isoCountry": "Iran",
    "iata": "AEU",
    "icao": "OIBA",
    "latitude": 25.8757,
    "longitude": 55.033001,
    "elevationFt": 23,
    "timezone": "Asia/Tehran",
    "tzOffsetHours": 3.5,
    "dst": "E",
    "type": "airport",
    "source": "OurAirports"
  },
  {
    "id": 7354,
    "name": "Alcides Fernández Airport",
    "city": "Acandi",
    "country": "Colombia",
    "isoCountry": "Colombia",
    "iata": "ACD",
    "icao": "SKAD",
    "latitude": 8.51667,
    "longitude": -77.3,
    "elevationFt": 50,
    "timezone": "America/Bogota",
    "tzOffsetHours": -5,
    "dst": "U",
    "type": "airport",
    "source": "OurAirports"
  },
  {
    "id": 1783,
    "name": "General Juan N Alvarez International Airport",
    "city": "Acapulco",
    "country": "Mexico",
    "isoCountry": "Mexico",
    "iata": "ACA",
    "icao": "MMAA",
    "latitude": 16.757099151611328,
    "longitude": -99.75399780273438,
    "elevationFt": 16,
    "timezone": "America/Mexico_City",
    "tzOffsetHours": -6,
    "dst": "S",
    "type": "airport",
    "source": "OurAirports"
  },
  {
    "id": 2818,
    "name": "Oswaldo Guevara Mujica Airport",
    "city": "Acarigua",
    "country": "Venezuela",
    "isoCountry": "Venezuela",
    "iata": "AGV",
    "icao": "SVAC",
    "latitude": 9.553375244140625,
    "longitude": -69.23786926269531,
    "elevationFt": 640,
    "timezone": "America/Caracas",
    "tzOffsetHours": -4,
    "dst": "U",
    "type": "airport",
    "source": "OurAirports"
  },
  {
    "id": 248,
    "name": "Kotoka International Airport",
    "city": "Accra",
    "country": "Ghana",
    "isoCountry": "Ghana",
    "iata": "ACC",
    "icao": "DGAA",
    "latitude": 5.605189800262451,
    "longitude": -0.16678600013256073,
    "elevationFt": 205,
    "timezone": "Africa/Accra",
    "tzOffsetHours": 0,
    "dst": "N",
    "type": "airport",
    "source": "OurAirports"
  },
  {
    "id": 11524,
    "name": "Achinsk Airport",
    "city": "Achinsk",
    "country": "Russia",
    "isoCountry": "Russia",
    "iata": "ACS",
    "icao": "UNKS",
    "latitude": 56.2682991027832,
    "longitude": 90.57080078125,
    "elevationFt": 1033,
    "tzOffsetHours": 8,
    "dst": "N",
    "type": "airport",
    "source": "OurAirports"
  },
  {
    "id": 9787,
    "name": "Ada Regional Airport",
    "city": "Ada",
    "country": "United States",
    "isoCountry": "United States",
    "iata": "ADT",
    "icao": "KADH",
    "latitude": 34.804298,
    "longitude": -96.671303,
    "elevationFt": 1016,
    "timezone": "America/Chicago",
    "tzOffsetHours": -6,
    "dst": "A",
    "type": "airport",
    "source": "OurAirports"
  },
  {
    "id": 5959,
    "name": "Adak Airport",
    "city": "Adak Island",
    "country": "United States",
    "isoCountry": "United States",
    "iata": "ADK",
    "icao": "PADK",
    "latitude": 51.87799835205078,
    "longitude": -176.64599609375,
    "elevationFt": 18,
    "timezone": "America/Adak",
    "tzOffsetHours": -10,
    "dst": "A",
    "type": "airport",
    "source": "OurAirports"
  },
  {
    "id": 13502,
    "name": "Adampur Airport",
    "city": "Adampur",
    "country": "India",
    "isoCountry": "India",
    "iata": "AIP",
    "icao": "VIAX",
    "latitude": 31.4338,
    "longitude": 75.758797,
    "elevationFt": 775,
    "tzOffsetHours": 5.5,
    "dst": "N",
    "type": "airport",
    "source": "OurAirports"
  },
  {
    "id": 1685,
    "name": "Adana Airport",
    "city": "Adana",
    "country": "Turkey",
    "isoCountry": "Turkey",
    "iata": "ADA",
    "icao": "LTAF",
    "latitude": 36.9822006226,
    "longitude": 35.280399322499996,
    "elevationFt": 65,
    "timezone": "Europe/Istanbul",
    "tzOffsetHours": 3,
    "dst": "E",
    "type": "airport",
    "source": "OurAirports"
  },
  {
    "id": 1686,
    "name": "İncirlik Air Base",
    "city": "Adana",
    "country": "Turkey",
    "isoCountry": "Turkey",
    "iata": "UAB",
    "icao": "LTAG",
    "latitude": 37.002101898199996,
    "longitude": 35.4258995056,
    "elevationFt": 238,
    "timezone": "Europe/Istanbul",
    "tzOffsetHours": 3,
    "dst": "E",
    "type": "airport",
    "source": "OurAirports"
  },
  {
    "id": 1107,
    "name": "Addis Ababa Bole International Airport",
    "city": "Addis Ababa",
    "country": "Ethiopia",
    "isoCountry": "Ethiopia",
    "iata": "ADD",
    "icao": "HAAB",
    "latitude": 8.97789001465,
    "longitude": 38.799301147499996,
    "elevationFt": 7630,
    "timezone": "Africa/Addis_Ababa",
    "tzOffsetHours": 3,
    "dst": "U",
    "type": "airport",
    "source": "OurAirports"
  },
  {
    "id": 7513,
    "name": "Addison Airport",
    "city": "Addison",
    "country": "United States",
    "isoCountry": "United States",
    "iata": "ADS",
    "icao": "KADS",
    "latitude": 32.9686012268,
    "longitude": -96.8364028931,
    "elevationFt": 644,
    "timezone": "America/Chicago",
    "tzOffsetHours": -6,
    "dst": "A",
    "type": "airport",
    "source": "OurAirports"
  },
  {
    "id": 3341,
    "name": "Adelaide International Airport",
    "city": "Adelaide",
    "country": "Australia",
    "isoCountry": "Australia",
    "iata": "ADL",
    "icao": "YPAD",
    "latitude": -34.945,
    "longitude": 138.531006,
    "elevationFt": 20,
    "timezone": "Australia/Adelaide",
    "tzOffsetHours": 9.5,
    "dst": "O",
    "type": "airport",
    "source": "OurAirports"
  },
  {
    "id": 3977,
    "name": "Aden International Airport",
    "city": "Aden",
    "country": "Yemen",
    "isoCountry": "Yemen",
    "iata": "ADE",
    "icao": "OYAA",
    "latitude": 12.829500198364258,
    "longitude": 45.02880096435547,
    "elevationFt": 7,
    "timezone": "Asia/Aden",
    "tzOffsetHours": 3,
    "dst": "U",
    "type": "airport",
    "source": "OurAirports"
  },
  {
    "id": 5800,
    "name": "Adıyaman Airport",
    "city": "Adiyaman",
    "country": "Turkey",
    "isoCountry": "Turkey",
    "iata": "ADF",
    "icao": "LTCP",
    "latitude": 37.7313995361,
    "longitude": 38.4688987732,
    "elevationFt": 2216,
    "timezone": "Europe/Istanbul",
    "tzOffsetHours": 3,
    "dst": "E",
    "type": "airport",
    "source": "OurAirports"
  },
  {
    "id": 234,
    "name": "Touat Cheikh Sidi Mohamed Belkebir Airport",
    "city": "Adrar",
    "country": "Algeria",
    "isoCountry": "Algeria",
    "iata": "AZR",
    "icao": "DAUA",
    "latitude": 27.837600708007812,
    "longitude": -0.18641400337219238,
    "elevationFt": 919,
    "timezone": "Africa/Algiers",
    "tzOffsetHours": 1,
    "dst": "N",
    "type": "airport",
    "source": "OurAirports"
  },
  {
    "id": 7615,
    "name": "Afutara Aerodrome",
    "city": "Afutara",
    "country": "Solomon Islands",
    "isoCountry": "Solomon Islands",
    "iata": "AFT",
    "icao": "AGAF",
    "latitude": -9.19138888889,
    "longitude": 160.948611111,
    "elevationFt": 23,
    "timezone": "Pacific/Guadalcanal",
    "tzOffsetHours": 11,
    "dst": "U",
    "type": "airport",
    "source": "OurAirports"
  },
  {
    "id": 1687,
    "name": "Afyon Airport",
    "city": "Afyon",
    "country": "Turkey",
    "isoCountry": "Turkey",
    "iata": "AFY",
    "icao": "LTAH",
    "latitude": 38.726398468,
    "longitude": 30.6011009216,
    "elevationFt": 3310,
    "timezone": "Europe/Istanbul",
    "tzOffsetHours": 3,
    "dst": "E",
    "type": "airport",
    "source": "OurAirports"
  },
  {
    "id": 282,
    "name": "Mano Dayak International Airport",
    "city": "Agadez",
    "country": "Niger",
    "isoCountry": "Niger",
    "iata": "AJY",
    "icao": "DRZA",
    "latitude": 16.965999603271484,
    "longitude": 8.000109672546387,
    "elevationFt": 1657,
    "timezone": "Africa/Niamey",
    "tzOffsetHours": 1,
    "dst": "N",
    "type": "airport",
    "source": "OurAirports"
  },
  {
    "id": 1064,
    "name": "Al Massira Airport",
    "city": "Agadir",
    "country": "Morocco",
    "isoCountry": "Morocco",
    "iata": "AGA",
    "icao": "GMAD",
    "latitude": 30.325000762939453,
    "longitude": -9.413069725036621,
    "elevationFt": 250,
    "timezone": "Africa/Casablanca",
    "tzOffsetHours": 0,
    "dst": "N",
    "type": "airport",
    "source": "OurAirports"
  },
  {
    "id": 2246,
    "name": "Antonio B. Won Pat International Airport",
    "city": "Agana",
    "country": "Guam",
    "isoCountry": "Guam",
    "iata": "GUM",
    "icao": "PGUM",
    "latitude": 13.4834003448,
    "longitude": 144.796005249,
    "elevationFt": 298,
    "timezone": "Pacific/Guam",
    "tzOffsetHours": 10,
    "dst": "U",
    "type": "airport",
    "source": "OurAirports"
  },
  {
    "id": 3038,
    "name": "Agartala Airport",
    "city": "Agartala",
    "country": "India",
    "isoCountry": "India",
    "iata": "IXA",
    "icao": "VEAT",
    "latitude": 23.8869991302,
    "longitude": 91.24040222170001,
    "elevationFt": 46,
    "timezone": "Asia/Calcutta",
    "tzOffsetHours": 5.5,
    "dst": "N",
    "type": "airport",
    "source": "OurAirports"
  },
  {
    "id": 3130,
    "name": "Agatti Airport",
    "city": "Agatti Island",
    "country": "India",
    "isoCountry": "India",
    "iata": "AGX",
    "icao": "VOAT",
    "latitude": 10.823699951171875,
    "longitude": 72.1760025024414,
    "elevationFt": 14,
    "timezone": "Asia/Calcutta",
    "tzOffsetHours": 5.5,
    "dst": "N",
    "type": "airport",
    "source": "OurAirports"
  },
  {
    "id": 1262,
    "name": "Agen-La Garenne Airport",
    "city": "Agen",
    "country": "France",
    "isoCountry": "France",
    "iata": "AGF",
    "icao": "LFBA",
    "latitude": 44.17470169067383,
    "longitude": 0.5905560255050659,
    "elevationFt": 204,
    "timezone": "Europe/Paris",
    "tzOffsetHours": 1,
    "dst": "E",
    "type": "airport",
    "source": "OurAirports"
  },
  {
    "id": 791,
    "name": "Aggeneys Airport",
    "city": "Aggeneys",
    "country": "South Africa",
    "isoCountry": "South Africa",
    "iata": "AGZ",
    "icao": "FAAG",
    "latitude": -29.28179931640625,
    "longitude": 18.813899993896484,
    "elevationFt": 2648,
    "timezone": "Africa/Johannesburg",
    "tzOffsetHours": 2,
    "dst": "U",
    "type": "airport",
    "source": "OurAirports"
  },
  {
    "id": 2099,
    "name": "Aghajari Airport",
    "city": "Aghajari",
    "country": "Iran",
    "isoCountry": "Iran",
    "iata": "AKW",
    "icao": "OIAG",
    "latitude": 30.7444,
    "longitude": 49.6772,
    "elevationFt": 88,
    "timezone": "Asia/Tehran",
    "tzOffsetHours": 3.5,
    "dst": "E",
    "type": "airport",
    "source": "OurAirports"
  },
  {
    "id": 3079,
    "name": "Agra Airport",
    "city": "Agra",
    "country": "India",
    "isoCountry": "India",
    "iata": "AGR",
    "icao": "VIAG",
    "latitude": 27.155799865722656,
    "longitude": 77.96089935302734,
    "elevationFt": 551,
    "timezone": "Asia/Calcutta",
    "tzOffsetHours": 5.5,
    "dst": "N",
    "type": "airport",
    "source": "OurAirports"
  },
  {
    "id": 5799,
    "name": "Ağrı Airport",
    "city": "Agri",
    "country": "Turkey",
    "isoCountry": "Turkey",
    "iata": "AJI",
    "icao": "LTCO",
    "latitude": 39.654541015625,
    "longitude": 43.025978088378906,
    "elevationFt": 5462,
    "timezone": "Europe/Istanbul",
    "tzOffsetHours": 3,
    "dst": "E",
    "type": "airport",
    "source": "OurAirports"
  },
  {
    "id": 1445,
    "name": "Agrinion Air Base",
    "city": "Agrinion",
    "country": "Greece",
    "isoCountry": "Greece",
    "iata": "AGQ",
    "icao": "LGAG",
    "latitude": 38.602001,
    "longitude": 21.3512001,
    "elevationFt": 154,
    "timezone": "Europe/Athens",
    "tzOffsetHours": 2,
    "dst": "E",
    "type": "airport",
    "source": "OurAirports"
  },
  {
    "id": 2885,
    "name": "Rafael Hernandez Airport",
    "city": "Aguadilla",
    "country": "Puerto Rico",
    "isoCountry": "Puerto Rico",
    "iata": "BQN",
    "icao": "TJBQ",
    "latitude": 18.49489974975586,
    "longitude": -67.12940216064453,
    "elevationFt": 237,
    "timezone": "America/Puerto_Rico",
    "tzOffsetHours": -4,
    "dst": "U",
    "type": "airport",
    "source": "OurAirports"
  },
  {
    "id": 1785,
    "name": "Jesús Terán Paredo International Airport",
    "city": "Aguascalientes",
    "country": "Mexico",
    "isoCountry": "Mexico",
    "iata": "AGU",
    "icao": "MMAS",
    "latitude": 21.705601,
    "longitude": -102.318001,
    "elevationFt": 6112,
    "timezone": "America/Mexico_City",
    "tzOffsetHours": -6,
    "dst": "S",
    "type": "airport",
    "source": "OurAirports"
  },
  {
    "id": 7552,
    "name": "Aguni Airport",
    "city": "Aguni",
    "country": "Japan",
    "isoCountry": "Japan",
    "iata": "AGJ",
    "icao": "RORA",
    "latitude": 26.5925006866,
    "longitude": 127.240997314,
    "elevationFt": 38,
    "timezone": "Asia/Tokyo",
    "tzOffsetHours": 9,
    "dst": "U",
    "type": "airport",
    "source": "OurAirports"
  },
  {
    "id": 5889,
    "name": "Ahe Airport",
    "city": "Ahe",
    "country": "French Polynesia",
    "isoCountry": "French Polynesia",
    "iata": "AHE",
    "icao": "NTHE",
    "latitude": -14.428099632263184,
    "longitude": -146.2570037841797,
    "elevationFt": 11,
    "timezone": "Pacific/Tahiti",
    "tzOffsetHours": -10,
    "dst": "U",
    "type": "airport",
    "source": "OurAirports"
  },
  {
    "id": 11906,
    "name": "Ahmed Al Jaber Air Base",
    "city": "Ahmed Al Jaber AB",
    "country": "Kuwait",
    "isoCountry": "Kuwait",
    "iata": "XIJ",
    "icao": "OKAJ",
    "latitude": 28.9347991943,
    "longitude": 47.791900634799994,
    "elevationFt": 409,
    "type": "airport",
    "source": "OurAirports"
  },
  {
    "id": 2994,
    "name": "Sardar Vallabhbhai Patel International Airport",
    "city": "Ahmedabad",
    "country": "India",
    "isoCountry": "India",
    "iata": "AMD",
    "icao": "VAAH",
    "latitude": 23.0771999359,
    "longitude": 72.63469696039999,
    "elevationFt": 189,
    "timezone": "Asia/Calcutta",
    "tzOffsetHours": 5.5,
    "dst": "N",
    "type": "airport",
    "source": "OurAirports"
  },
  {
    "id": 5831,
    "name": "Ahuas Airport",
    "city": "Ahuas",
    "country": "Honduras",
    "isoCountry": "Honduras",
    "iata": "AHS",
    "icao": "MHAH",
    "latitude": 15.4722,
    "longitude": -84.352203,
    "elevationFt": 249,
    "timezone": "America/Tegucigalpa",
    "tzOffsetHours": -6,
    "dst": "U",
    "type": "airport",
    "source": "OurAirports"
  },
  {
    "id": 2104,
    "name": "Ahwaz Airport",
    "city": "Ahwaz",
    "country": "Iran",
    "isoCountry": "Iran",
    "iata": "AWZ",
    "icao": "OIAW",
    "latitude": 31.337400436399996,
    "longitude": 48.7620010376,
    "elevationFt": 66,
    "timezone": "Asia/Tehran",
    "tzOffsetHours": 3.5,
    "dst": "E",
    "type": "airport",
    "source": "OurAirports"
  },
  {
    "id": 8515,
    "name": "Aiken Regional Airport",
    "city": "Aiken",
    "country": "United States",
    "isoCountry": "United States",
    "iata": "AIK",
    "icao": "KAIK",
    "latitude": 33.649399,
    "longitude": -81.684998,
    "elevationFt": 528,
    "timezone": "America/New_York",
    "tzOffsetHours": -5,
    "dst": "A",
    "type": "airport",
    "source": "OurAirports"
  },
  {
    "id": 1089,
    "name": "Aioun el Atrouss Airport",
    "city": "Aioun El Atrouss",
    "country": "Mauritania",
    "isoCountry": "Mauritania",
    "iata": "AEO",
    "icao": "GQNA",
    "latitude": 16.711299896240234,
    "longitude": -9.637880325317383,
    "elevationFt": 951,
    "timezone": "Africa/Nouakchott",
    "tzOffsetHours": 0,
    "dst": "N",
    "type": "airport",
    "source": "OurAirports"
  },
  {
    "id": 6870,
    "name": "Whitsunday Island Airport",
    "city": "Airlie Beach",
    "country": "Australia",
    "isoCountry": "Australia",
    "iata": "WSY",
    "icao": "YWHI",
    "latitude": -20.27611,
    "longitude": 148.755,
    "elevationFt": 40,
    "timezone": "Australia/Brisbane",
    "tzOffsetHours": 10,
    "dst": "O",
    "type": "airport",
    "source": "OurAirports"
  },
  {
    "id": 1958,
    "name": "Aitutaki Airport",
    "city": "Aitutaki",
    "country": "Cook Islands",
    "isoCountry": "Cook Islands",
    "iata": "AIT",
    "icao": "NCAI",
    "latitude": -18.830900192260742,
    "longitude": -159.76400756835938,
    "elevationFt": 14,
    "timezone": "Pacific/Rarotonga",
    "tzOffsetHours": -10,
    "dst": "U",
    "type": "airport",
    "source": "OurAirports"
  },
  {
    "id": 3039,
    "name": "Lengpui Airport",
    "city": "Aizwal",
    "country": "India",
    "isoCountry": "India",
    "iata": "AJL",
    "icao": "VELP",
    "latitude": 23.840599060099997,
    "longitude": 92.6196975708,
    "elevationFt": 1398,
    "timezone": "Asia/Calcutta",
    "tzOffsetHours": 5.5,
    "dst": "N",
    "type": "airport",
    "source": "OurAirports"
  },
  {
    "id": 1324,
    "name": "Ajaccio-Napoléon Bonaparte Airport",
    "city": "Ajaccio",
    "country": "France",
    "isoCountry": "France",
    "iata": "AJA",
    "icao": "LFKJ",
    "latitude": 41.92359924316406,
    "longitude": 8.8029203414917,
    "elevationFt": 18,
    "timezone": "Europe/Paris",
    "tzOffsetHours": 1,
    "dst": "E",
    "type": "airport",
    "source": "OurAirports"
  },
  {
    "id": 8080,
    "name": "Méribel Altiport",
    "city": "Ajaccio",
    "country": "France",
    "isoCountry": "France",
    "iata": "MFX",
    "icao": "LFKX",
    "latitude": 45.407003,
    "longitude": 6.577942,
    "elevationFt": 5636,
    "timezone": "Europe/Paris",
    "tzOffsetHours": 1,
    "dst": "U",
    "type": "airport",
    "source": "OurAirports"
  },
  {
    "id": 13724,
    "name": "Kishangarh Airport",
    "city": "Ajmer",
    "country": "India",
    "isoCountry": "India",
    "iata": "KQH",
    "icao": "VIKG",
    "latitude": 26.601473,
    "longitude": 74.814147,
    "elevationFt": 0,
    "type": "airport",
    "source": "OurAirports"
  },
  {
    "id": 7160,
    "name": "Akhiok Airport",
    "city": "Akhiok",
    "country": "United States",
    "isoCountry": "United States",
    "iata": "AKK",
    "icao": "PAKH",
    "latitude": 56.9387016296,
    "longitude": -154.182998657,
    "elevationFt": 44,
    "timezone": "America/Anchorage",
    "tzOffsetHours": -9,
    "dst": "A",
    "type": "airport",
    "source": "OurAirports"
  },
  {
    "id": 7217,
    "name": "Akiak Airport",
    "city": "Akiak",
    "country": "United States",
    "isoCountry": "United States",
    "iata": "AKI",
    "icao": "PFAK",
    "latitude": 60.9029006958,
    "longitude": -161.231002808,
    "elevationFt": 30,
    "timezone": "America/Anchorage",
    "tzOffsetHours": -9,
    "dst": "A",
    "type": "airport",
    "source": "OurAirports"
  },
  {
    "id": 2345,
    "name": "Akita Airport",
    "city": "Akita",
    "country": "Japan",
    "isoCountry": "Japan",
    "iata": "AXT",
    "icao": "RJSK",
    "latitude": 39.6156005859375,
    "longitude": 140.218994140625,
    "elevationFt": 313,
    "timezone": "Asia/Tokyo",
    "tzOffsetHours": 9,
    "dst": "U",
    "type": "airport",
    "source": "OurAirports"
  },
  {
    "id": 4236,
    "name": "Aklavik/Freddie Carmichael Airport",
    "city": "Aklavik",
    "country": "Canada",
    "isoCountry": "Canada",
    "iata": "LAK",
    "icao": "CYKD",
    "latitude": 68.223297,
    "longitude": -135.00599,
    "elevationFt": 23,
    "timezone": "America/Edmonton",
    "tzOffsetHours": -7,
    "dst": "A",
    "type": "airport",
    "source": "OurAirports"
  },
  {
    "id": 2995,
    "name": "Akola Airport",
    "city": "Akola",
    "country": "India",
    "isoCountry": "India",
    "iata": "AKD",
    "icao": "VAAK",
    "latitude": 20.698999,
    "longitude": 77.058601,
    "elevationFt": 999,
    "timezone": "Asia/Calcutta",
    "tzOffsetHours": 5.5,
    "dst": "N",
    "type": "airport",
    "source": "OurAirports"
  },
  {
    "id": 3587,
    "name": "Akron Fulton International Airport",
    "city": "Akron",
    "country": "United States",
    "isoCountry": "United States",
    "iata": "AKC",
    "icao": "KAKR",
    "latitude": 41.0374984741,
    "longitude": -81.4669036865,
    "elevationFt": 1067,
    "timezone": "America/New_York",
    "tzOffsetHours": -5,
    "dst": "A",
    "type": "airport",
    "source": "OurAirports"
  },
  {
    "id": 9546,
    "name": "Colorado Plains Regional Airport",
    "city": "Akron",
    "country": "United States",
    "isoCountry": "United States",
    "iata": "AKO",
    "icao": "KAKO",
    "latitude": 40.1755981445,
    "longitude": -103.222000122,
    "elevationFt": 4714,
    "timezone": "America/Denver",
    "tzOffsetHours": -7,
    "dst": "A",
    "type": "airport",
    "source": "OurAirports"
  },
  {
    "id": 4112,
    "name": "Akron Canton Regional Airport",
    "city": "Akron",
    "country": "United States",
    "isoCountry": "United States",
    "iata": "CAK",
    "icao": "KCAK",
    "latitude": 40.916099548339844,
    "longitude": -81.44219970703125,
    "elevationFt": 1228,
    "timezone": "America/New_York",
    "tzOffsetHours": -5,
    "dst": "A",
    "type": "airport",
    "source": "OurAirports"
  },
  {
    "id": 1199,
    "name": "RAF Akrotiri",
    "city": "Akrotiri",
    "country": "Cyprus",
    "isoCountry": "Cyprus",
    "iata": "AKT",
    "icao": "LCRA",
    "latitude": 34.590401,
    "longitude": 32.9879,
    "elevationFt": 76,
    "timezone": "Europe/London",
    "tzOffsetHours": 0,
    "dst": "E",
    "type": "airport",
    "source": "OurAirports"
  },
  {
    "id": 6404,
    "name": "Aksu Airport",
    "city": "Aksu",
    "country": "China",
    "isoCountry": "China",
    "iata": "AKU",
    "icao": "ZWAK",
    "latitude": 41.262501,
    "longitude": 80.291702,
    "elevationFt": 3816,
    "timezone": "Asia/Shanghai",
    "tzOffsetHours": 8,
    "dst": "U",
    "type": "airport",
    "source": "OurAirports"
  },
  {
    "id": 4367,
    "name": "Aktau Airport",
    "city": "Aktau",
    "country": "Kazakhstan",
    "isoCountry": "Kazakhstan",
    "iata": "SCO",
    "icao": "UATE",
    "latitude": 43.8601,
    "longitude": 51.091999,
    "elevationFt": 73,
    "timezone": "Asia/Oral",
    "tzOffsetHours": 5,
    "dst": "U",
    "type": "airport",
    "source": "OurAirports"
  },
  {
    "id": 2920,
    "name": "Aktobe Airport",
    "city": "Aktyubinsk",
    "country": "Kazakhstan",
    "isoCountry": "Kazakhstan",
    "iata": "AKX",
    "icao": "UATT",
    "latitude": 50.2458,
    "longitude": 57.206699,
    "elevationFt": 738,
    "timezone": "Asia/Oral",
    "tzOffsetHours": 5,
    "dst": "U",
    "type": "airport",
    "source": "OurAirports"
  },
  {
    "id": 5506,
    "name": "Akulivik Airport",
    "city": "Akulivik",
    "country": "Canada",
    "isoCountry": "Canada",
    "iata": "AKV",
    "icao": "CYKO",
    "latitude": 60.818599700927734,
    "longitude": -78.14859771728516,
    "elevationFt": 75,
    "timezone": "America/Toronto",
    "tzOffsetHours": -5,
    "dst": "A",
    "type": "airport",
    "source": "OurAirports"
  },
  {
    "id": 261,
    "name": "Akure Airport",
    "city": "Akure",
    "country": "Nigeria",
    "isoCountry": "Nigeria",
    "iata": "AKR",
    "icao": "DNAK",
    "latitude": 7.246739864349365,
    "longitude": 5.3010101318359375,
    "elevationFt": 1100,
    "timezone": "Africa/Lagos",
    "tzOffsetHours": 1,
    "dst": "N",
    "type": "airport",
    "source": "OurAirports"
  },
  {
    "id": 11,
    "name": "Akureyri Airport",
    "city": "Akureyri",
    "country": "Iceland",
    "isoCountry": "Iceland",
    "iata": "AEY",
    "icao": "BIAR",
    "latitude": 65.66000366210938,
    "longitude": -18.07270050048828,
    "elevationFt": 6,
    "timezone": "Atlantic/Reykjavik",
    "tzOffsetHours": 0,
    "dst": "N",
    "type": "airport",
    "source": "OurAirports"
  },
  {
    "id": 6134,
    "name": "Akutan Seaplane Base",
    "city": "Akutan",
    "country": "United States",
    "isoCountry": "United States",
    "iata": "KQA",
    "icao": "KQA",
    "latitude": 54.1337704415,
    "longitude": -165.778895617,
    "elevationFt": 0,
    "timezone": "America/Anchorage",
    "tzOffsetHours": -9,
    "dst": "A",
    "type": "airport",
    "source": "OurAirports"
  },
  {
    "id": 5937,
    "name": "Al Ain International Airport",
    "city": "Al Ain",
    "country": "United Arab Emirates",
    "isoCountry": "United Arab Emirates",
    "iata": "AAN",
    "icao": "OMAL",
    "latitude": 24.261699676513672,
    "longitude": 55.60919952392578,
    "elevationFt": 869,
    "timezone": "Asia/Dubai",
    "tzOffsetHours": 4,
    "dst": "U",
    "type": "airport",
    "source": "OurAirports"
  },
  {
    "id": 4137,
    "name": "Al Asad Air Base",
    "city": "Al Asad",
    "country": "Iraq",
    "isoCountry": "Iraq",
    "iata": "IQA",
    "icao": "ORAA",
    "latitude": 33.7855987549,
    "longitude": 42.4412002563,
    "elevationFt": 618,
    "timezone": "Asia/Baghdad",
    "tzOffsetHours": 3,
    "dst": "U",
    "type": "airport",
    "source": "OurAirports"
  },
  {
    "id": 4139,
    "name": "Joint Base Balad",
    "city": "Al Bakr",
    "country": "Iraq",
    "isoCountry": "Iraq",
    "iata": "XQC",
    "icao": "ORBD",
    "latitude": 33.940200805699995,
    "longitude": 44.361598968500005,
    "elevationFt": 161,
    "timezone": "Asia/Baghdad",
    "tzOffsetHours": 3,
    "dst": "U",
    "type": "airport",
    "source": "OurAirports"
  },
  {
    "id": 5699,
    "name": "La Abraq Airport",
    "city": "Al Bayda'",
    "country": "Libya",
    "isoCountry": "Libya",
    "iata": "LAQ",
    "icao": "HLLQ",
    "latitude": 32.788700103759766,
    "longitude": 21.96430015563965,
    "elevationFt": 2157,
    "timezone": "Africa/Tripoli",
    "tzOffsetHours": 2,
    "dst": "N",
    "type": "airport",
    "source": "OurAirports"
  },
  {
    "id": 3979,
    "name": "Al Ghaidah International Airport",
    "city": "Al Ghaidah Intl",
    "country": "Yemen",
    "isoCountry": "Yemen",
    "iata": "AAY",
    "icao": "OYGD",
    "latitude": 16.191699981689453,
    "longitude": 52.17499923706055,
    "elevationFt": 134,
    "timezone": "Asia/Aden",
    "tzOffsetHours": 3,
    "dst": "U",
    "type": "airport",
    "source": "OurAirports"
  },
  {
    "id": 1078,
    "name": "Cherif Al Idrissi Airport",
    "city": "Al Hociema",
    "country": "Morocco",
    "isoCountry": "Morocco",
    "iata": "AHU",
    "icao": "GMTA",
    "latitude": 35.177101135253906,
    "longitude": -3.83951997756958,
    "elevationFt": 95,
    "timezone": "Africa/Casablanca",
    "tzOffsetHours": 0,
    "dst": "N",
    "type": "airport",
    "source": "OurAirports"
  },
  {
    "id": 7037,
    "name": "Prince Sultan Air Base",
    "city": "Al Kharj",
    "country": "Saudi Arabia",
    "isoCountry": "Saudi Arabia",
    "iata": "AKH",
    "icao": "OEPS",
    "latitude": 24.062700271606445,
    "longitude": 47.580501556396484,
    "elevationFt": 1651,
    "timezone": "Asia/Riyadh",
    "tzOffsetHours": 3,
    "dst": "N",
    "type": "airport",
    "source": "OurAirports"
  },
  {
    "id": 14101,
    "name": "Rustaq Airport",
    "city": "Al Masna'ah",
    "country": "Oman",
    "isoCountry": "Oman",
    "iata": "MNH",
    "icao": "OORQ",
    "latitude": 23.640556,
    "longitude": 57.4875,
    "elevationFt": 349,
    "type": "airport",
    "source": "OurAirports"
  },
  {
    "id": 4138,
    "name": "Al Taqaddum Air Base",
    "city": "Al Taqaddum",
    "country": "Iraq",
    "isoCountry": "Iraq",
    "iata": "TQD",
    "icao": "ORAT",
    "latitude": 33.33810043335,
    "longitude": 43.597099304199,
    "elevationFt": 275,
    "timezone": "Asia/Baghdad",
    "tzOffsetHours": 3,
    "dst": "U",
    "type": "airport",
    "source": "OurAirports"
  },
  {
    "id": 2060,
    "name": "Al Ahsa Airport",
    "city": "Al-ahsa",
    "country": "Saudi Arabia",
    "isoCountry": "Saudi Arabia",
    "iata": "HOF",
    "icao": "OEAH",
    "latitude": 25.28529930114746,
    "longitude": 49.485198974609375,
    "elevationFt": 588,
    "timezone": "Asia/Riyadh",
    "tzOffsetHours": 3,
    "dst": "U",
    "type": "airport",
    "source": "OurAirports"
  },
  {
    "id": 5925,
    "name": "Al-Jawf Domestic Airport",
    "city": "Al-Jawf",
    "country": "Saudi Arabia",
    "isoCountry": "Saudi Arabia",
    "iata": "AJF",
    "icao": "OESK",
    "latitude": 29.78510093688965,
    "longitude": 40.099998474121094,
    "elevationFt": 2261,
    "timezone": "Asia/Riyadh",
    "tzOffsetHours": 3,
    "dst": "U",
    "type": "airport",
    "source": "OurAirports"
  },
  {
    "id": 8381,
    "name": "Majeed Bin Abdulaziz Airport",
    "city": "Al-Ula",
    "country": "Saudi Arabia",
    "isoCountry": "Saudi Arabia",
    "iata": "ULH",
    "icao": "OEAO",
    "latitude": 26.48,
    "longitude": 38.1288888889,
    "elevationFt": 2050,
    "timezone": "Asia/Riyadh",
    "tzOffsetHours": 3,
    "dst": "N",
    "type": "airport",
    "source": "OurAirports"
  },
  {
    "id": 7199,
    "name": "Alakanuk Airport",
    "city": "Alakanuk",
    "country": "United States",
    "isoCountry": "United States",
    "iata": "AUK",
    "icao": "PAUK",
    "latitude": 62.680042266799994,
    "longitude": -164.659927368,
    "elevationFt": 10,
    "timezone": "America/Anchorage",
    "tzOffsetHours": -9,
    "dst": "A",
    "type": "airport",
    "source": "OurAirports"
  },
  {
    "id": 9071,
    "name": "Alameda Naval Air Station",
    "city": "Alameda",
    "country": "United States",
    "isoCountry": "United States",
    "iata": "NGZ",
    "icao": "KNGZ",
    "latitude": 37.78889846801758,
    "longitude": -122.31999969482422,
    "elevationFt": 10,
    "timezone": "America/Los_Angeles",
    "tzOffsetHours": -8,
    "dst": "U",
    "type": "airport",
    "source": "OurAirports"
  },
  {
    "id": 5717,
    "name": "Alamogordo White Sands Regional Airport",
    "city": "Alamogordo",
    "country": "United States",
    "isoCountry": "United States",
    "iata": "ALM",
    "icao": "KALM",
    "latitude": 32.8399009705,
    "longitude": -105.990997314,
    "elevationFt": 4200,
    "timezone": "America/Denver",
    "tzOffsetHours": -7,
    "dst": "A",
    "type": "airport",
    "source": "OurAirports"
  },
  {
    "id": 3802,
    "name": "Holloman Air Force Base",
    "city": "Alamogordo",
    "country": "United States",
    "isoCountry": "United States",
    "iata": "HMN",
    "icao": "KHMN",
    "latitude": 32.8525009155,
    "longitude": -106.107002258,
    "elevationFt": 4093,
    "timezone": "America/Denver",
    "tzOffsetHours": -7,
    "dst": "A",
    "type": "airport",
    "source": "OurAirports"
  },
  {
    "id": 7073,
    "name": "San Luis Valley Regional Bergman Field",
    "city": "Alamosa",
    "country": "United States",
    "isoCountry": "United States",
    "iata": "ALS",
    "icao": "KALS",
    "latitude": 37.434898,
    "longitude": -105.866997,
    "elevationFt": 7539,
    "timezone": "America/Denver",
    "tzOffsetHours": -7,
    "dst": "A",
    "type": "airport",
    "source": "OurAirports"
  },
  {
    "id": 8266,
    "name": "Gazipaşa Airport",
    "city": "Alanya",
    "country": "Turkey",
    "isoCountry": "Turkey",
    "iata": "GZP",
    "icao": "LTGP",
    "latitude": 36.299217,
    "longitude": 32.300598,
    "elevationFt": 86,
    "timezone": "Europe/Istanbul",
    "tzOffsetHours": 3,
    "dst": "E",
    "type": "airport",
    "source": "OurAirports"
  },
  {
    "id": 1211,
    "name": "Albacete-Los Llanos Airport",
    "city": "Albacete",
    "country": "Spain",
    "isoCountry": "Spain",
    "iata": "ABC",
    "icao": "LEAB",
    "latitude": 38.9485015869,
    "longitude": -1.8635200262099998,
    "elevationFt": 2302,
    "timezone": "Europe/Madrid",
    "tzOffsetHours": 1,
    "dst": "E",
    "type": "airport",
    "source": "OurAirports"
  },
  {
    "id": 5715,
    "name": "Southwest Georgia Regional Airport",
    "city": "Albany",
    "country": "United States",
    "isoCountry": "United States",
    "iata": "ABY",
    "icao": "KABY",
    "latitude": 31.535499572753906,
    "longitude": -84.19450378417969,
    "elevationFt": 197,
    "timezone": "America/New_York",
    "tzOffsetHours": -5,
    "dst": "A",
    "type": "airport",
    "source": "OurAirports"
  },
  {
    "id": 3864,
    "name": "Albany International Airport",
    "city": "Albany",
    "country": "United States",
    "isoCountry": "United States",
    "iata": "ALB",
    "icao": "KALB",
    "latitude": 42.74829864501953,
    "longitude": -73.80169677734375,
    "elevationFt": 285,
    "timezone": "America/New_York",
    "tzOffsetHours": -5,
    "dst": "A",
    "type": "airport",
    "source": "OurAirports"
  },
  {
    "id": 6235,
    "name": "Albany Airport",
    "city": "Albany",
    "country": "Australia",
    "isoCountry": "Australia",
    "iata": "ALH",
    "icao": "YABA",
    "latitude": -34.94329833984375,
    "longitude": 117.80899810791016,
    "elevationFt": 233,
    "timezone": "Australia/Perth",
    "tzOffsetHours": 8,
    "dst": "O",
    "type": "airport",
    "source": "OurAirports"
  },
  {
    "id": 1527,
    "name": "Villanova D'Albenga International Airport",
    "city": "Albenga",
    "country": "Italy",
    "isoCountry": "Italy",
    "iata": "ALL",
    "icao": "LIMG",
    "latitude": 44.050598,
    "longitude": 8.12743,
    "elevationFt": 148,
    "timezone": "Europe/Rome",
    "tzOffsetHours": 1,
    "dst": "E",
    "type": "airport",
    "source": "OurAirports"
  },
  {
    "id": 1258,
    "name": "Albert-Bray Airport",
    "city": "Albert",
    "country": "France",
    "isoCountry": "France",
    "iata": "BYF",
    "icao": "LFAQ",
    "latitude": 49.9715003967,
    "longitude": 2.69765996933,
    "elevationFt": 364,
    "timezone": "Europe/Paris",
    "tzOffsetHours": 1,
    "dst": "E",
    "type": "airport",
    "source": "OurAirports"
  },
  {
    "id": 1284,
    "name": "Albi-Le Séquestre Airport",
    "city": "Albi",
    "country": "France",
    "isoCountry": "France",
    "iata": "LBI",
    "icao": "LFCI",
    "latitude": 43.91389846801758,
    "longitude": 2.1130599975585938,
    "elevationFt": 564,
    "timezone": "Europe/Paris",
    "tzOffsetHours": 1,
    "dst": "E",
    "type": "airport",
    "source": "OurAirports"
  },
  {
    "id": 7325,
    "name": "Albina Airport",
    "city": "Albina",
    "country": "Suriname",
    "isoCountry": "Suriname",
    "iata": "ABN",
    "icao": "SMBN",
    "latitude": 5.512720108032227,
    "longitude": -54.05009841918945,
    "elevationFt": 19,
    "timezone": "America/Paramaribo",
    "tzOffsetHours": -3,
    "dst": "U",
    "type": "airport",
    "source": "OurAirports"
  },
  {
    "id": 4019,
    "name": "Albuquerque International Sunport",
    "city": "Albuquerque",
    "country": "United States",
    "isoCountry": "United States",
    "iata": "ABQ",
    "icao": "KABQ",
    "latitude": 35.040199,
    "longitude": -106.609001,
    "elevationFt": 5355,
    "timezone": "America/Denver",
    "tzOffsetHours": -7,
    "dst": "A",
    "type": "airport",
    "source": "OurAirports"
  },
  {
    "id": 3333,
    "name": "Albury Airport",
    "city": "Albury",
    "country": "Australia",
    "isoCountry": "Australia",
    "iata": "ABX",
    "icao": "YMAY",
    "latitude": -36.06779861450195,
    "longitude": 146.95799255371094,
    "elevationFt": 539,
    "timezone": "Australia/Sydney",
    "tzOffsetHours": 10,
    "dst": "O",
    "type": "airport",
    "source": "OurAirports"
  },
  {
    "id": 9377,
    "name": "Aldan Airport",
    "city": "Aldan",
    "country": "Russia",
    "isoCountry": "Russia",
    "iata": "ADH",
    "icao": "UEEA",
    "latitude": 58.60279846191406,
    "longitude": 125.40899658203125,
    "elevationFt": 2241,
    "timezone": "Asia/Yakutsk",
    "tzOffsetHours": 9,
    "dst": "N",
    "type": "airport",
    "source": "OurAirports"
  },
  {
    "id": 497,
    "name": "Alderney Airport",
    "city": "Alderney",
    "country": "Guernsey",
    "isoCountry": "Guernsey",
    "iata": "ACI",
    "icao": "EGJA",
    "latitude": 49.706104,
    "longitude": -2.21472,
    "elevationFt": 290,
    "timezone": "Europe/Guernsey",
    "tzOffsetHours": 0,
    "dst": "E",
    "type": "airport",
    "source": "OurAirports"
  },
  {
    "id": 6126,
    "name": "Aleknagik / New Airport",
    "city": "Aleknagik",
    "country": "United States",
    "isoCountry": "United States",
    "iata": "WKK",
    "icao": "5A8",
    "latitude": 59.2826004028,
    "longitude": -158.617996216,
    "elevationFt": 66,
    "timezone": "America/Anchorage",
    "tzOffsetHours": -9,
    "dst": "A",
    "type": "airport",
    "source": "OurAirports"
  },
  {
    "id": 2235,
    "name": "Aleppo International Airport",
    "city": "Aleppo",
    "country": "Syria",
    "isoCountry": "Syria",
    "iata": "ALP",
    "icao": "OSAP",
    "latitude": 36.18069839477539,
    "longitude": 37.22439956665039,
    "elevationFt": 1276,
    "timezone": "Asia/Damascus",
    "tzOffsetHours": 2,
    "dst": "E",
    "type": "airport",
    "source": "OurAirports"
  },
  {
    "id": 86,
    "name": "Alert Airport",
    "city": "Alert",
    "country": "Canada",
    "isoCountry": "Canada",
    "iata": "YLT",
    "icao": "CYLT",
    "latitude": 82.51779937740001,
    "longitude": -62.2806015015,
    "elevationFt": 100,
    "timezone": "America/Toronto",
    "tzOffsetHours": -5,
    "dst": "A",
    "type": "airport",
    "source": "OurAirports"
  },
  {
    "id": 11744,
    "name": "Alert Bay Airport",
    "city": "Alert Bay",
    "country": "Canada",
    "isoCountry": "Canada",
    "iata": "YAL",
    "icao": "CYAL",
    "latitude": 50.58219909667969,
    "longitude": -126.91600036621094,
    "elevationFt": 240,
    "type": "airport",
    "source": "OurAirports"
  },
  {
    "id": 630,
    "name": "Ålesund Airport",
    "city": "Alesund",
    "country": "Norway",
    "isoCountry": "Norway",
    "iata": "AES",
    "icao": "ENAL",
    "latitude": 62.5625,
    "longitude": 6.119699954986572,
    "elevationFt": 69,
    "timezone": "Europe/Oslo",
    "tzOffsetHours": 1,
    "dst": "E",
    "type": "airport",
    "source": "OurAirports"
  },
  {
    "id": 790,
    "name": "Alexander Bay Airport",
    "city": "Alexander Bay",
    "country": "South Africa",
    "isoCountry": "South Africa",
    "iata": "ALJ",
    "icao": "FAAB",
    "latitude": -28.575001,
    "longitude": 16.5333,
    "elevationFt": 98,
    "timezone": "Africa/Johannesburg",
    "tzOffsetHours": 2,
    "dst": "U",
    "type": "airport",
    "source": "OurAirports"
  },
  {
    "id": 11022,
    "name": "Thomas C Russell Field",
    "city": "Alexander City",
    "country": "United States",
    "isoCountry": "United States",
    "iata": "ALX",
    "icao": "KALX",
    "latitude": 32.914699554399995,
    "longitude": -85.9629974365,
    "elevationFt": 686,
    "tzOffsetHours": -5,
    "dst": "A",
    "type": "airport",
    "source": "OurAirports"
  },
  {
    "id": 2019,
    "name": "Alexandra Airport",
    "city": "Alexandra",
    "country": "New Zealand",
    "isoCountry": "New Zealand",
    "iata": "ALR",
    "icao": "NZLX",
    "latitude": -45.211700439453125,
    "longitude": 169.3730010986328,
    "elevationFt": 752,
    "timezone": "Pacific/Auckland",
    "tzOffsetHours": 12,
    "dst": "Z",
    "type": "airport",
    "source": "OurAirports"
  },
  {
    "id": 3852,
    "name": "Alexandria International Airport",
    "city": "Alexandria",
    "country": "United States",
    "isoCountry": "United States",
    "iata": "AEX",
    "icao": "KAEX",
    "latitude": 31.32740020751953,
    "longitude": -92.54979705810547,
    "elevationFt": 89,
    "timezone": "America/Chicago",
    "tzOffsetHours": -6,
    "dst": "A",
    "type": "airport",
    "source": "OurAirports"
  },
  {
    "id": 1126,
    "name": "El Nouzha Airport",
    "city": "Alexandria",
    "country": "Egypt",
    "isoCountry": "Egypt",
    "iata": "ALY",
    "icao": "HEAX",
    "latitude": 31.183900833129883,
    "longitude": 29.94890022277832,
    "elevationFt": -6,
    "timezone": "Africa/Cairo",
    "tzOffsetHours": 2,
    "dst": "U",
    "type": "airport",
    "source": "OurAirports"
  },
  {
    "id": 11815,
    "name": "Chandler Field",
    "city": "Alexandria",
    "country": "United States",
    "isoCountry": "United States",
    "iata": "AXN",
    "icao": "KAXN",
    "latitude": 45.8662986755,
    "longitude": -95.39469909670001,
    "elevationFt": 1425,
    "type": "airport",
    "source": "OurAirports"
  },
  {
    "id": 3634,
    "name": "Esler Regional Airport",
    "city": "Alexandria",
    "country": "United States",
    "isoCountry": "United States",
    "iata": "ESF",
    "icao": "KESF",
    "latitude": 31.3948993683,
    "longitude": -92.2957992554,
    "elevationFt": 112,
    "timezone": "America/Chicago",
    "tzOffsetHours": -6,
    "dst": "A",
    "type": "airport",
    "source": "OurAirports"
  },
  {
    "id": 3410,
    "name": "Borg El Arab International Airport",
    "city": "Alexandria",
    "country": "Egypt",
    "isoCountry": "Egypt",
    "iata": "HBE",
    "icao": "HEBA",
    "latitude": 30.917699813842773,
    "longitude": 29.696399688720703,
    "elevationFt": 177,
    "timezone": "Africa/Cairo",
    "tzOffsetHours": 2,
    "dst": "U",
    "type": "airport",
    "source": "OurAirports"
  },
  {
    "id": 1446,
    "name": "Dimokritos Airport",
    "city": "Alexandroupolis",
    "country": "Greece",
    "isoCountry": "Greece",
    "iata": "AXD",
    "icao": "LGAL",
    "latitude": 40.855899810791016,
    "longitude": 25.956300735473633,
    "elevationFt": 24,
    "timezone": "Europe/Athens",
    "tzOffsetHours": 2,
    "dst": "E",
    "type": "airport",
    "source": "OurAirports"
  },
  {
    "id": 13677,
    "name": "Algeciras Heliport",
    "city": "Algeciras",
    "country": "Spain",
    "isoCountry": "Spain",
    "iata": "AEI",
    "icao": "LEAG",
    "latitude": 36.12888,
    "longitude": -5.441118,
    "elevationFt": 98,
    "tzOffsetHours": -2,
    "dst": "E",
    "type": "airport",
    "source": "OurAirports"
  },
  {
    "id": 1517,
    "name": "Alghero-Fertilia Airport",
    "city": "Alghero",
    "country": "Italy",
    "isoCountry": "Italy",
    "iata": "AHO",
    "icao": "LIEA",
    "latitude": 40.632099,
    "longitude": 8.29077,
    "elevationFt": 87,
    "timezone": "Europe/Rome",
    "tzOffsetHours": 1,
    "dst": "E",
    "type": "airport",
    "source": "OurAirports"
  },
  {
    "id": 210,
    "name": "Houari Boumediene Airport",
    "city": "Algier",
    "country": "Algeria",
    "isoCountry": "Algeria",
    "iata": "ALG",
    "icao": "DAAG",
    "latitude": 36.691001892089844,
    "longitude": 3.215409994125366,
    "elevationFt": 82,
    "timezone": "Africa/Algiers",
    "tzOffsetHours": 1,
    "dst": "N",
    "type": "airport",
    "source": "OurAirports"
  },
  {
    "id": 1212,
    "name": "Alicante International Airport",
    "city": "Alicante",
    "country": "Spain",
    "isoCountry": "Spain",
    "iata": "ALC",
    "icao": "LEAL",
    "latitude": 38.28219985961914,
    "longitude": -0.5581560134887695,
    "elevationFt": 142,
    "timezone": "Europe/Madrid",
    "tzOffsetHours": 1,
    "dst": "E",
    "type": "airport",
    "source": "OurAirports"
  },
  {
    "id": 3574,
    "name": "Alice International Airport",
    "city": "Alice",
    "country": "United States",
    "isoCountry": "United States",
    "iata": "ALI",
    "icao": "KALI",
    "latitude": 27.740900039699998,
    "longitude": -98.02690124510002,
    "elevationFt": 178,
    "timezone": "America/Chicago",
    "tzOffsetHours": -6,
    "dst": "A",
    "type": "airport",
    "source": "OurAirports"
  },
  {
    "id": 3319,
    "name": "Alice Springs Airport",
    "city": "Alice Springs",
    "country": "Australia",
    "isoCountry": "Australia",
    "iata": "ASP",
    "icao": "YBAS",
    "latitude": -23.806699752807617,
    "longitude": 133.90199279785156,
    "elevationFt": 1789,
    "timezone": "Australia/Darwin",
    "tzOffsetHours": 9.5,
    "dst": "N",
    "type": "airport",
    "source": "OurAirports"
  },
  {
    "id": 1937,
    "name": "South Bimini Airport",
    "city": "Alice Town",
    "country": "Bahamas",
    "isoCountry": "Bahamas",
    "iata": "BIM",
    "icao": "MYBS",
    "latitude": 25.6998996735,
    "longitude": -79.2647018433,
    "elevationFt": 10,
    "timezone": "America/Nassau",
    "tzOffsetHours": -5,
    "dst": "U",
    "type": "airport",
    "source": "OurAirports"
  },
  {
    "id": 3080,
    "name": "Allahabad Airport",
    "city": "Allahabad",
    "country": "India",
    "isoCountry": "India",
    "iata": "IXD",
    "icao": "VIAL",
    "latitude": 25.440099716186523,
    "longitude": 81.73390197753906,
    "elevationFt": 322,
    "timezone": "Asia/Calcutta",
    "tzOffsetHours": 5.5,
    "dst": "N",
    "type": "airport",
    "source": "OurAirports"
  },
  {
    "id": 6839,
    "name": "Allakaket Airport",
    "city": "Allakaket",
    "country": "United States",
    "isoCountry": "United States",
    "iata": "AET",
    "icao": "PFAL",
    "latitude": 66.5518035889,
    "longitude": -152.621994019,
    "elevationFt": 441,
    "timezone": "America/Anchorage",
    "tzOffsetHours": -9,
    "dst": "A",
    "type": "airport",
    "source": "OurAirports"
  },
  {
    "id": 8702,
    "name": "Alldays Airport",
    "city": "Alldays",
    "country": "South Africa",
    "isoCountry": "South Africa",
    "iata": "ADY",
    "icao": "FAAL",
    "latitude": -22.6790008545,
    "longitude": 29.0555000305,
    "elevationFt": 2600,
    "timezone": "Africa/Johannesburg",
    "tzOffsetHours": 2,
    "dst": "U",
    "type": "airport",
    "source": "OurAirports"
  },
  {
    "id": 4355,
    "name": "Lehigh Valley International Airport",
    "city": "Allentown",
    "country": "United States",
    "isoCountry": "United States",
    "iata": "ABE",
    "icao": "KABE",
    "latitude": 40.652099609375,
    "longitude": -75.44080352783203,
    "elevationFt": 393,
    "timezone": "America/New_York",
    "tzOffsetHours": -5,
    "dst": "A",
    "type": "airport",
    "source": "OurAirports"
  },
  {
    "id": 7067,
    "name": "Alliance Municipal Airport",
    "city": "Alliance",
    "country": "United States",
    "isoCountry": "United States",
    "iata": "AIA",
    "icao": "KAIA",
    "latitude": 42.0531997681,
    "longitude": -102.804000854,
    "elevationFt": 3931,
    "timezone": "America/Denver",
    "tzOffsetHours": -7,
    "dst": "A",
    "type": "airport",
    "source": "OurAirports"
  },
  {
    "id": 5438,
    "name": "Alluitsup Paa Heliport",
    "city": "Alluitsup Paa",
    "country": "Greenland",
    "isoCountry": "Greenland",
    "iata": "LLU",
    "icao": "BGAP",
    "latitude": 60.46445,
    "longitude": -45.56917,
    "elevationFt": 54,
    "timezone": "America/Godthab",
    "tzOffsetHours": -3,
    "dst": "E",
    "type": "airport",
    "source": "OurAirports"
  },
  {
    "id": 7254,
    "name": "Alma Airport",
    "city": "Alma",
    "country": "Canada",
    "isoCountry": "Canada",
    "iata": "YTF",
    "icao": "CYTF",
    "latitude": 48.50889968869999,
    "longitude": -71.64189910889999,
    "elevationFt": 445,
    "timezone": "America/Toronto",
    "tzOffsetHours": -5,
    "dst": "A",
    "type": "airport",
    "source": "OurAirports"
  },
  {
    "id": 2908,
    "name": "Almaty Airport",
    "city": "Alma-ata",
    "country": "Kazakhstan",
    "isoCountry": "Kazakhstan",
    "iata": "ALA",
    "icao": "UAAA",
    "latitude": 43.35210037231445,
    "longitude": 77.04049682617188,
    "elevationFt": 2234,
    "timezone": "Asia/Qyzylorda",
    "tzOffsetHours": 6,
    "dst": "U",
    "type": "airport",
    "source": "OurAirports"
  },
  {
    "id": 2585,
    "name": "Monte Dourado Airport",
    "city": "Almeirim",
    "country": "Brazil",
    "isoCountry": "Brazil",
    "iata": "MEU",
    "icao": "SBMD",
    "latitude": -0.889839,
    "longitude": -52.6022,
    "elevationFt": 677,
    "timezone": "America/Belem",
    "tzOffsetHours": -3,
    "dst": "S",
    "type": "airport",
    "source": "OurAirports"
  },
  {
    "id": 1213,
    "name": "Almería International Airport",
    "city": "Almeria",
    "country": "Spain",
    "isoCountry": "Spain",
    "iata": "LEI",
    "icao": "LEAM",
    "latitude": 36.84389877319336,
    "longitude": -2.3701000213623047,
    "elevationFt": 70,
    "timezone": "Europe/Madrid",
    "tzOffsetHours": 1,
    "dst": "E",
    "type": "airport",
    "source": "OurAirports"
  },
  {
    "id": 5884,
    "name": "Niue International Airport",
    "city": "Alofi",
    "country": "Niue",
    "isoCountry": "Niue",
    "iata": "IUE",
    "icao": "NIUE",
    "latitude": -19.079030990600586,
    "longitude": -169.92559814453125,
    "elevationFt": 209,
    "timezone": "Pacific/Niue",
    "tzOffsetHours": -11,
    "dst": "U",
    "type": "airport",
    "source": "OurAirports"
  },
  {
    "id": 3037,
    "name": "Along Airport",
    "city": "Along",
    "country": "India",
    "isoCountry": "India",
    "iata": "IXV",
    "icao": "VEAN",
    "latitude": 28.17530059814453,
    "longitude": 94.802001953125,
    "elevationFt": 900,
    "timezone": "Asia/Calcutta",
    "tzOffsetHours": 5.5,
    "dst": "N",
    "type": "airport",
    "source": "OurAirports"
  },
  {
    "id": 6213,
    "name": "Mali Airport",
    "city": "Alor Island",
    "country": "Indonesia",
    "isoCountry": "Indonesia",
    "iata": "ARD",
    "icao": "WATM",
    "latitude": -8.132340431213379,
    "longitude": 124.59700012207031,
    "elevationFt": 10,
    "timezone": "Asia/Makassar",
    "tzOffsetHours": 8,
    "dst": "N",
    "type": "airport",
    "source": "OurAirports"
  },
  {
    "id": 3296,
    "name": "Sultan Abdul Halim Airport",
    "city": "Alor Setar",
    "country": "Malaysia",
    "isoCountry": "Malaysia",
    "iata": "AOR",
    "icao": "WMKA",
    "latitude": 6.189670085906982,
    "longitude": 100.39800262451172,
    "elevationFt": 15,
    "timezone": "Asia/Kuala_Lumpur",
    "tzOffsetHours": 8,
    "dst": "N",
    "type": "airport",
    "source": "OurAirports"
  },
  {
    "id": 5720,
    "name": "Alpena County Regional Airport",
    "city": "Alpena",
    "country": "United States",
    "isoCountry": "United States",
    "iata": "APN",
    "icao": "KAPN",
    "latitude": 45.0780983,
    "longitude": -83.56030273,
    "elevationFt": 690,
    "timezone": "America/New_York",
    "tzOffsetHours": -5,
    "dst": "A",
    "type": "airport",
    "source": "OurAirports"
  },
  {
    "id": 12011,
    "name": "Alpha Airport",
    "city": "Alpha",
    "country": "Australia",
    "isoCountry": "Australia",
    "iata": "ABH",
    "icao": "YAPH",
    "latitude": -23.646099,
    "longitude": 146.584,
    "elevationFt": 1255,
    "type": "airport",
    "source": "OurAirports"
  },
  {
    "id": 10107,
    "name": "Alpine Casparis Municipal Airport",
    "city": "Alpine",
    "country": "United States",
    "isoCountry": "United States",
    "iata": "ALE",
    "icao": "KE38",
    "latitude": 30.384199142499998,
    "longitude": -103.683998108,
    "elevationFt": 4515,
    "tzOffsetHours": -5,
    "dst": "A",
    "type": "airport",
    "source": "OurAirports"
  },
  {
    "id": 632,
    "name": "Alta Airport",
    "city": "Alta",
    "country": "Norway",
    "isoCountry": "Norway",
    "iata": "ALF",
    "icao": "ENAT",
    "latitude": 69.976097106934,
    "longitude": 23.371700286865,
    "elevationFt": 9,
    "timezone": "Europe/Oslo",
    "tzOffsetHours": 1,
    "dst": "E",
    "type": "airport",
    "source": "OurAirports"
  },
  {
    "id": 2524,
    "name": "Piloto Osvaldo Marques Dias Airport",
    "city": "Alta Floresta",
    "country": "Brazil",
    "isoCountry": "Brazil",
    "iata": "AFL",
    "icao": "SBAT",
    "latitude": -9.8663892746,
    "longitude": -56.1049995422,
    "elevationFt": 948,
    "timezone": "America/Campo_Grande",
    "tzOffsetHours": -4,
    "dst": "S",
    "type": "airport",
    "source": "OurAirports"
  },
  {
    "id": 6370,
    "name": "Altai Airport",
    "city": "Altai",
    "country": "Mongolia",
    "isoCountry": "Mongolia",
    "iata": "LTI",
    "icao": "ZMAT",
    "latitude": 46.376399993896484,
    "longitude": 96.22109985351562,
    "elevationFt": 7260,
    "timezone": "Asia/Ulaanbaatar",
    "tzOffsetHours": 8,
    "dst": "U",
    "type": "airport",
    "source": "OurAirports"
  },
  {
    "id": 2566,
    "name": "Altamira Airport",
    "city": "Altamira",
    "country": "Brazil",
    "isoCountry": "Brazil",
    "iata": "ATM",
    "icao": "SBHT",
    "latitude": -3.2539100646973,
    "longitude": -52.254001617432,
    "elevationFt": 369,
    "timezone": "America/Belem",
    "tzOffsetHours": -3,
    "dst": "S",
    "type": "airport",
    "source": "OurAirports"
  },
  {
    "id": 6946,
    "name": "Altay Air Base",
    "city": "Altay",
    "country": "China",
    "isoCountry": "China",
    "iata": "AAT",
    "icao": "ZWAT",
    "latitude": 47.7498855591,
    "longitude": 88.08580780030002,
    "elevationFt": 2460,
    "timezone": "Asia/Shanghai",
    "tzOffsetHours": 8,
    "dst": "U",
    "type": "airport",
    "source": "OurAirports"
  },
  {
    "id": 318,
    "name": "Altenburg-Nobitz Airport",
    "city": "Altenburg",
    "country": "Germany",
    "isoCountry": "Germany",
    "iata": "AOC",
    "icao": "EDAC",
    "latitude": 50.981945,
    "longitude": 12.506389,
    "elevationFt": 640,
    "timezone": "Europe/Berlin",
    "tzOffsetHours": 1,
    "dst": "E",
    "type": "airport",
    "source": "OurAirports"
  },
  {
    "id": 1679,
    "name": "St Gallen Altenrhein Airport",
    "city": "Altenrhein",
    "country": "Switzerland",
    "isoCountry": "Switzerland",
    "iata": "ACH",
    "icao": "LSZR",
    "latitude": 47.4850006104,
    "longitude": 9.560770034789998,
    "elevationFt": 1306,
    "timezone": "Europe/Zurich",
    "tzOffsetHours": 1,
    "dst": "E",
    "type": "airport",
    "source": "OurAirports"
  },
  {
    "id": 7311,
    "name": "D. Casimiro Szlapelis Airport",
    "city": "Alto Rio Senguer",
    "country": "Argentina",
    "isoCountry": "Argentina",
    "iata": "ARR",
    "icao": "SAVR",
    "latitude": -45.013599,
    "longitude": -70.812202,
    "elevationFt": 2286,
    "timezone": "America/Catamarca",
    "tzOffsetHours": -3,
    "dst": "N",
    "type": "airport",
    "source": "OurAirports"
  },
  {
    "id": 11814,
    "name": "St Louis Regional Airport",
    "city": "Alton/St Louis",
    "country": "United States",
    "isoCountry": "United States",
    "iata": "ALN",
    "icao": "KALN",
    "latitude": 38.89030075069999,
    "longitude": -90.0459976196,
    "elevationFt": 544,
    "type": "airport",
    "source": "OurAirports"
  },
  {
    "id": 3694,
    "name": "Altoona Blair County Airport",
    "city": "Altoona",
    "country": "United States",
    "isoCountry": "United States",
    "iata": "AOO",
    "icao": "KAOO",
    "latitude": 40.29639816,
    "longitude": -78.31999969,
    "elevationFt": 1503,
    "timezone": "America/New_York",
    "tzOffsetHours": -5,
    "dst": "A",
    "type": "airport",
    "source": "OurAirports"
  },
  {
    "id": 3635,
    "name": "Altus Air Force Base",
    "city": "Altus",
    "country": "United States",
    "isoCountry": "United States",
    "iata": "LTS",
    "icao": "KLTS",
    "latitude": 34.667098999,
    "longitude": -99.2667007446,
    "elevationFt": 1382,
    "timezone": "America/Chicago",
    "tzOffsetHours": -6,
    "dst": "A",
    "type": "airport",
    "source": "OurAirports"
  },
  {
    "id": 5685,
    "name": "Alula Airport",
    "city": "Alula",
    "country": "Somalia",
    "isoCountry": "Somalia",
    "iata": "ALU",
    "icao": "HCMA",
    "latitude": 11.9582,
    "longitude": 50.748,
    "elevationFt": 6,
    "timezone": "Africa/Mogadishu",
    "tzOffsetHours": 3,
    "dst": "U",
    "type": "airport",
    "source": "OurAirports"
  },
  {
    "id": 1616,
    "name": "Alverca Air Base",
    "city": "Alverca",
    "country": "Portugal",
    "isoCountry": "Portugal",
    "iata": "AVR",
    "icao": "LPAR",
    "latitude": 38.883301,
    "longitude": -9.0301,
    "elevationFt": 11,
    "timezone": "Europe/Lisbon",
    "tzOffsetHours": 0,
    "dst": "E",
    "type": "airport",
    "source": "OurAirports"
  },
  {
    "id": 12921,
    "name": "Alxa Left Banner Bayanhot Airport",
    "city": "Alxa Left Banner",
    "country": "China",
    "isoCountry": "China",
    "iata": "AXF",
    "icao": "ZBAL",
    "latitude": 38.74831,
    "longitude": 105.58858,
    "elevationFt": 4560,
    "tzOffsetHours": 8,
    "dst": "N",
    "type": "airport",
    "source": "OurAirports"
  },
  {
    "id": 13481,
    "name": "Alxa Right Banner Badanjilin Airport",
    "city": "Alxa Right Banner",
    "country": "China",
    "isoCountry": "China",
    "iata": "RHT",
    "icao": "ZBAR",
    "latitude": 39.225,
    "longitude": 101.546,
    "elevationFt": 4659,
    "tzOffsetHours": 8,
    "dst": "N",
    "type": "airport",
    "source": "OurAirports"
  },
  {
    "id": 7413,
    "name": "Am Timan Airport",
    "city": "Am Timan",
    "country": "Chad",
    "isoCountry": "Chad",
    "iata": "AMC",
    "icao": "FTTN",
    "latitude": 11.0340003967,
    "longitude": 20.274000167799997,
    "elevationFt": 1420,
    "timezone": "Africa/Ndjamena",
    "tzOffsetHours": 1,
    "dst": "U",
    "type": "airport",
    "source": "OurAirports"
  },
  {
    "id": 7550,
    "name": "Amakusa Airport",
    "city": "Amakusa",
    "country": "Japan",
    "isoCountry": "Japan",
    "iata": "AXJ",
    "icao": "RJDA",
    "latitude": 32.482498,
    "longitude": 130.158997,
    "elevationFt": 340,
    "timezone": "Asia/Tokyo",
    "tzOffsetHours": 9,
    "dst": "U",
    "type": "airport",
    "source": "OurAirports"
  },
  {
    "id": 2316,
    "name": "Amami Airport",
    "city": "Amami",
    "country": "Japan",
    "isoCountry": "Japan",
    "iata": "ASJ",
    "icao": "RJKA",
    "latitude": 28.430599212646484,
    "longitude": 129.71299743652344,
    "elevationFt": 27,
    "timezone": "Asia/Tokyo",
    "tzOffsetHours": 9,
    "dst": "U",
    "type": "airport",
    "source": "OurAirports"
  },
  {
    "id": 3840,
    "name": "Rick Husband Amarillo International Airport",
    "city": "Amarillo",
    "country": "United States",
    "isoCountry": "United States",
    "iata": "AMA",
    "icao": "KAMA",
    "latitude": 35.219398,
    "longitude": -101.706001,
    "elevationFt": 3607,
    "timezone": "America/Chicago",
    "tzOffsetHours": -6,
    "dst": "A",
    "type": "airport",
    "source": "OurAirports"
  },
  {
    "id": 12958,
    "name": "Amata Airport",
    "city": "Amata",
    "country": "Australia",
    "isoCountry": "Australia",
    "iata": "AMT",
    "icao": "YAMT",
    "latitude": -26.108299255371094,
    "longitude": 131.20700073242188,
    "elevationFt": 695,
    "tzOffsetHours": 9.5,
    "dst": "O",
    "type": "airport",
    "source": "OurAirports"
  },
  {
    "id": 2668,
    "name": "Chachoán Airport",
    "city": "Ambato",
    "country": "Ecuador",
    "isoCountry": "Ecuador",
    "iata": "ATF",
    "icao": "SEAM",
    "latitude": -1.2120699882507324,
    "longitude": -78.57460021972656,
    "elevationFt": 8502,
    "timezone": "America/Guayaquil",
    "tzOffsetHours": -5,
    "dst": "U",
    "type": "airport",
    "source": "OurAirports"
  },
  {
    "id": 5622,
    "name": "Ambatondrazaka Airport",
    "city": "Ambatondrazaka",
    "country": "Madagascar",
    "isoCountry": "Madagascar",
    "iata": "WAM",
    "icao": "FMMZ",
    "latitude": -17.795378,
    "longitude": 48.442583,
    "elevationFt": 2513,
    "timezone": "Indian/Antananarivo",
    "tzOffsetHours": 3,
    "dst": "U",
    "type": "airport",
    "source": "OurAirports"
  },
  {
    "id": 3318,
    "name": "Northern Peninsula Airport",
    "city": "Amberley",
    "country": "Australia",
    "isoCountry": "Australia",
    "iata": "ABM",
    "icao": "YBAM",
    "latitude": -10.9508,
    "longitude": 142.459,
    "elevationFt": 34,
    "timezone": "Australia/Brisbane",
    "tzOffsetHours": 10,
    "dst": "O",
    "type": "airport",
    "source": "OurAirports"
  },
  {
    "id": 926,
    "name": "Ambilobe Airport",
    "city": "Ambilobe",
    "country": "Madagascar",
    "isoCountry": "Madagascar",
    "iata": "AMB",
    "icao": "FMNE",
    "latitude": -13.188400268554688,
    "longitude": 48.987998962402344,
    "elevationFt": 72,
    "timezone": "Indian/Antananarivo",
    "tzOffsetHours": 3,
    "dst": "U",
    "type": "airport",
    "source": "OurAirports"
  },
  {
    "id": 7177,
    "name": "Ambler Airport",
    "city": "Ambler",
    "country": "United States",
    "isoCountry": "United States",
    "iata": "ABL",
    "icao": "PAFM",
    "latitude": 67.1063,
    "longitude": -157.856989,
    "elevationFt": 334,
    "timezone": "America/Anchorage",
    "tzOffsetHours": -9,
    "dst": "A",
    "type": "airport",
    "source": "OurAirports"
  },
  {
    "id": 3256,
    "name": "Pattimura Airport, Ambon",
    "city": "Ambon",
    "country": "Indonesia",
    "isoCountry": "Indonesia",
    "iata": "AMQ",
    "icao": "WAPP",
    "latitude": -3.7102599144,
    "longitude": 128.089004517,
    "elevationFt": 33,
    "timezone": "Asia/Jayapura",
    "tzOffsetHours": 9,
    "dst": "N",
    "type": "airport",
    "source": "OurAirports"
  },
  {
    "id": 5692,
    "name": "Amboseli Airport",
    "city": "Amboseli National Park",
    "country": "Kenya",
    "isoCountry": "Kenya",
    "iata": "ASV",
    "icao": "HKAM",
    "latitude": -2.645050048828125,
    "longitude": 37.25310134887695,
    "elevationFt": 3755,
    "timezone": "Africa/Nairobi",
    "tzOffsetHours": 3,
    "dst": "U",
    "type": "airport",
    "source": "OurAirports"
  },
  {
    "id": 5910,
    "name": "Uléi Airport",
    "city": "Ambryn Island",
    "country": "Vanuatu",
    "isoCountry": "Vanuatu",
    "iata": "ULB",
    "icao": "NVSU",
    "latitude": -16.3297,
    "longitude": 168.3011,
    "elevationFt": 170,
    "timezone": "Pacific/Efate",
    "tzOffsetHours": 11,
    "dst": "U",
    "type": "airport",
    "source": "OurAirports"
  },
  {
    "id": 6112,
    "name": "Amderma Airport",
    "city": "Amderma",
    "country": "Russia",
    "isoCountry": "Russia",
    "iata": "AMV",
    "icao": "ULDD",
    "latitude": 69.76329803466797,
    "longitude": 61.556400299072266,
    "elevationFt": 13,
    "timezone": "Europe/Moscow",
    "tzOffsetHours": 3,
    "dst": "N",
    "type": "airport",
    "source": "OurAirports"
  },
  {
    "id": 1102,
    "name": "Amílcar Cabral International Airport",
    "city": "Amilcar Cabral",
    "country": "Cape Verde",
    "isoCountry": "Cape Verde",
    "iata": "SID",
    "icao": "GVAC",
    "latitude": 16.7414,
    "longitude": -22.9494,
    "elevationFt": 177,
    "timezone": "Atlantic/Cape_Verde",
    "tzOffsetHours": -1,
    "dst": "U",
    "type": "airport",
    "source": "OurAirports"
  },
  {
    "id": 2171,
    "name": "Amman-Marka International Airport",
    "city": "Amman",
    "country": "Jordan",
    "isoCountry": "Jordan",
    "iata": "ADJ",
    "icao": "OJAM",
    "latitude": 31.972700119018555,
    "longitude": 35.991600036621094,
    "elevationFt": 2555,
    "timezone": "Asia/Amman",
    "tzOffsetHours": 2,
    "dst": "E",
    "type": "airport",
    "source": "OurAirports"
  },
  {
    "id": 2170,
    "name": "Queen Alia International Airport",
    "city": "Amman",
    "country": "Jordan",
    "isoCountry": "Jordan",
    "iata": "AMM",
    "icao": "OJAI",
    "latitude": 31.7226009369,
    "longitude": 35.9931983948,
    "elevationFt": 2395,
    "timezone": "Asia/Amman",
    "tzOffsetHours": 2,
    "dst": "E",
    "type": "airport",
    "source": "OurAirports"
  },
  {
    "id": 11753,
    "name": "Amos/Magny Airport",
    "city": "Amos",
    "country": "Canada",
    "isoCountry": "Canada",
    "iata": "YEY",
    "icao": "CYEY",
    "latitude": 48.563903,
    "longitude": -78.249702,
    "elevationFt": 1068,
    "type": "airport",
    "source": "OurAirports"
  },
  {
    "id": 936,
    "name": "Ampampamena Airport",
    "city": "Ampampamena",
    "country": "Madagascar",
    "isoCountry": "Madagascar",
    "iata": "IVA",
    "icao": "FMNZ",
    "latitude": -13.484816,
    "longitude": 48.632702,
    "elevationFt": 49,
    "timezone": "Indian/Antananarivo",
    "tzOffsetHours": 3,
    "dst": "U",
    "type": "airport",
    "source": "OurAirports"
  },
  {
    "id": 3081,
    "name": "Sri Guru Ram Dass Jee International Airport",
    "city": "Amritsar",
    "country": "India",
    "isoCountry": "India",
    "iata": "ATQ",
    "icao": "VIAR",
    "latitude": 31.7096004486,
    "longitude": 74.7973022461,
    "elevationFt": 756,
    "timezone": "Asia/Calcutta",
    "tzOffsetHours": 5.5,
    "dst": "N",
    "type": "airport",
    "source": "OurAirports"
  },
  {
    "id": 580,
    "name": "Amsterdam Airport Schiphol",
    "city": "Amsterdam",
    "country": "Netherlands",
    "isoCountry": "Netherlands",
    "iata": "AMS",
    "icao": "EHAM",
    "latitude": 52.308601,
    "longitude": 4.76389,
    "elevationFt": -11,
    "timezone": "Europe/Amsterdam",
    "tzOffsetHours": 1,
    "dst": "E",
    "type": "airport",
    "source": "OurAirports"
  },
  {
    "id": 1973,
    "name": "Anaa Airport",
    "city": "Anaa",
    "country": "French Polynesia",
    "isoCountry": "French Polynesia",
    "iata": "AAA",
    "icao": "NTGA",
    "latitude": -17.35260009765625,
    "longitude": -145.50999450683594,
    "elevationFt": 10,
    "timezone": "Pacific/Tahiti",
    "tzOffsetHours": -10,
    "dst": "U",
    "type": "airport",
    "source": "OurAirports"
  },
  {
    "id": 2819,
    "name": "Anaco Airport",
    "city": "Anaco",
    "country": "Venezuela",
    "isoCountry": "Venezuela",
    "iata": "AAO",
    "icao": "SVAN",
    "latitude": 9.430225372314453,
    "longitude": -64.4707260131836,
    "elevationFt": 721,
    "timezone": "America/Caracas",
    "tzOffsetHours": -4,
    "dst": "U",
    "type": "airport",
    "source": "OurAirports"
  },
  {
    "id": 6098,
    "name": "Ugolny Airport",
    "city": "Anadyr",
    "country": "Russia",
    "isoCountry": "Russia",
    "iata": "DYR",
    "icao": "UHMA",
    "latitude": 64.734902,
    "longitude": 177.740997,
    "elevationFt": 194,
    "timezone": "Asia/Anadyr",
    "tzOffsetHours": 12,
    "dst": "N",
    "type": "airport",
    "source": "OurAirports"
  },
  {
    "id": 5457,
    "name": "Anahim Lake Airport",
    "city": "Anahim Lake",
    "country": "Canada",
    "isoCountry": "Canada",
    "iata": "YAA",
    "icao": "CAJ4",
    "latitude": 52.45249938964844,
    "longitude": -125.3030014038086,
    "elevationFt": 3635,
    "timezone": "America/Vancouver",
    "tzOffsetHours": -8,
    "dst": "A",
    "type": "airport",
    "source": "OurAirports"
  },
  {
    "id": 6712,
    "name": "Anaktuvuk Pass Airport",
    "city": "Anaktuvuk Pass",
    "country": "United States",
    "isoCountry": "United States",
    "iata": "AKP",
    "icao": "PAKP",
    "latitude": 68.13359833,
    "longitude": -151.7429962,
    "elevationFt": 2102,
    "timezone": "America/Anchorage",
    "tzOffsetHours": -9,
    "dst": "A",
    "type": "airport",
    "source": "OurAirports"
  },
  {
    "id": 928,
    "name": "Analalava Airport",
    "city": "Analalava",
    "country": "Madagascar",
    "isoCountry": "Madagascar",
    "iata": "HVA",
    "icao": "FMNL",
    "latitude": -14.62969970703125,
    "longitude": 47.76380157470703,
    "elevationFt": 345,
    "timezone": "Indian/Antananarivo",
    "tzOffsetHours": 3,
    "dst": "U",
    "type": "airport",
    "source": "OurAirports"
  },
  {
    "id": 7536,
    "name": "Tarempa Airport",
    "city": "Anambas Islands",
    "country": "Indonesia",
    "isoCountry": "Indonesia",
    "iata": "MWK",
    "icao": "WIOM",
    "latitude": 3.3481199741363525,
    "longitude": 106.25800323486328,
    "elevationFt": 10,
    "timezone": "Asia/Jakarta",
    "tzOffsetHours": 7,
    "dst": "N",
    "type": "airport",
    "source": "OurAirports"
  },
  {
    "id": 4353,
    "name": "Anapa Vityazevo Airport",
    "city": "Anapa",
    "country": "Russia",
    "isoCountry": "Russia",
    "iata": "AAQ",
    "icao": "URKA",
    "latitude": 45.002101898193,
    "longitude": 37.347301483154,
    "elevationFt": 174,
    "timezone": "Europe/Moscow",
    "tzOffsetHours": 3,
    "dst": "N",
    "type": "airport",
    "source": "OurAirports"
  },
  {
    "id": 3774,
    "name": "Ted Stevens Anchorage International Airport",
    "city": "Anchorage",
    "country": "United States",
    "isoCountry": "United States",
    "iata": "ANC",
    "icao": "PANC",
    "latitude": 61.174400329589844,
    "longitude": -149.99600219726562,
    "elevationFt": 152,
    "timezone": "America/Anchorage",
    "tzOffsetHours": -9,
    "dst": "A",
    "type": "airport",
    "source": "OurAirports"
  },
  {
    "id": 3692,
    "name": "Elmendorf Air Force Base",
    "city": "Anchorage",
    "country": "United States",
    "isoCountry": "United States",
    "iata": "EDF",
    "icao": "PAED",
    "latitude": 61.250999450683594,
    "longitude": -149.8070068359375,
    "elevationFt": 212,
    "timezone": "America/Anchorage",
    "tzOffsetHours": -9,
    "dst": "A",
    "type": "airport",
    "source": "OurAirports"
  },
  {
    "id": 3438,
    "name": "Merrill Field",
    "city": "Anchorage",
    "country": "United States",
    "isoCountry": "United States",
    "iata": "MRI",
    "icao": "PAMR",
    "latitude": 61.2135009765625,
    "longitude": -149.843994140625,
    "elevationFt": 137,
    "timezone": "America/Anchorage",
    "tzOffsetHours": -9,
    "dst": "A",
    "type": "airport",
    "source": "OurAirports"
  },
  {
    "id": 4309,
    "name": "Ancona Falconara Airport",
    "city": "Ancona",
    "country": "Italy",
    "isoCountry": "Italy",
    "iata": "AOI",
    "icao": "LIPY",
    "latitude": 43.616299,
    "longitude": 13.3623,
    "elevationFt": 49,
    "timezone": "Europe/Rome",
    "tzOffsetHours": 1,
    "dst": "E",
    "type": "airport",
    "source": "OurAirports"
  },
  {
    "id": 2787,
    "name": "Andahuaylas Airport",
    "city": "Andahuaylas",
    "country": "Peru",
    "isoCountry": "Peru",
    "iata": "ANS",
    "icao": "SPHY",
    "latitude": -13.706399917602539,
    "longitude": -73.35040283203125,
    "elevationFt": 11300,
    "timezone": "America/Lima",
    "tzOffsetHours": -5,
    "dst": "U",
    "type": "airport",
    "source": "OurAirports"
  },
  {
    "id": 925,
    "name": "Andapa Airport",
    "city": "Andapa",
    "country": "Madagascar",
    "isoCountry": "Madagascar",
    "iata": "ZWA",
    "icao": "FMND",
    "latitude": -14.651700019836426,
    "longitude": 49.620601654052734,
    "elevationFt": 1552,
    "timezone": "Indian/Antananarivo",
    "tzOffsetHours": 3,
    "dst": "U",
    "type": "airport",
    "source": "OurAirports"
  },
  {
    "id": 3466,
    "name": "Anderson Regional Airport",
    "city": "Andersen",
    "country": "United States",
    "isoCountry": "United States",
    "iata": "AND",
    "icao": "KAND",
    "latitude": 34.4945983887,
    "longitude": -82.70939636230001,
    "elevationFt": 782,
    "timezone": "America/New_York",
    "tzOffsetHours": -5,
    "dst": "A",
    "type": "airport",
    "source": "OurAirports"
  },
  {
    "id": 2245,
    "name": "Andersen Air Force Base",
    "city": "Andersen",
    "country": "Guam",
    "isoCountry": "Guam",
    "iata": "UAM",
    "icao": "PGUA",
    "latitude": 13.584,
    "longitude": 144.929998,
    "elevationFt": 627,
    "timezone": "Pacific/Guam",
    "tzOffsetHours": 10,
    "dst": "U",
    "type": "airport",
    "source": "OurAirports"
  },
  {
    "id": 13077,
    "name": "Anderson Municipal Darlington Field",
    "city": "ANDERSON",
    "country": "United States",
    "isoCountry": "United States",
    "iata": "AID",
    "icao": "KAID",
    "latitude": 40.10860061649999,
    "longitude": -85.6129989624,
    "elevationFt": 919,
    "tzOffsetHours": -4,
    "dst": "A",
    "type": "airport",
    "source": "OurAirports"
  },
  {
    "id": 6148,
    "name": "Andizhan Airport",
    "city": "Andizhan",
    "country": "Uzbekistan",
    "isoCountry": "Uzbekistan",
    "iata": "AZN",
    "icao": "UTKA",
    "latitude": 40.7276992798,
    "longitude": 72.2939987183,
    "elevationFt": 1515,
    "timezone": "Asia/Samarkand",
    "tzOffsetHours": 5,
    "dst": "U",
    "type": "airport",
    "source": "OurAirports"
  },
  {
    "id": 2777,
    "name": "Alferez FAP Alfredo Vladimir Sara Bauer Airport",
    "city": "Andoas",
    "country": "Peru",
    "isoCountry": "Peru",
    "iata": "AOP",
    "icao": "SPAS",
    "latitude": -2.79612994194,
    "longitude": -76.46659851070001,
    "elevationFt": 728,
    "timezone": "America/Lima",
    "tzOffsetHours": -5,
    "dst": "U",
    "type": "airport",
    "source": "OurAirports"
  },
  {
    "id": 631,
    "name": "Andøya Airport",
    "city": "Andoya",
    "country": "Norway",
    "isoCountry": "Norway",
    "iata": "ANX",
    "icao": "ENAN",
    "latitude": 69.292503356934,
    "longitude": 16.144199371338,
    "elevationFt": 43,
    "timezone": "Europe/Oslo",
    "tzOffsetHours": 1,
    "dst": "E",
    "type": "airport",
    "source": "OurAirports"
  },
  {
    "id": 1444,
    "name": "Andravida Air Base",
    "city": "Andravida",
    "country": "Greece",
    "isoCountry": "Greece",
    "iata": "PYR",
    "icao": "LGAD",
    "latitude": 37.9207,
    "longitude": 21.292601,
    "elevationFt": 55,
    "timezone": "Europe/Athens",
    "tzOffsetHours": 2,
    "dst": "E",
    "type": "airport",
    "source": "OurAirports"
  },
  {
    "id": 5856,
    "name": "Congo Town Airport",
    "city": "Andros",
    "country": "Bahamas",
    "isoCountry": "Bahamas",
    "iata": "COX",
    "icao": "MYAK",
    "latitude": 24.158701,
    "longitude": -77.589798,
    "elevationFt": 15,
    "timezone": "America/Nassau",
    "tzOffsetHours": -5,
    "dst": "U",
    "type": "airport",
    "source": "OurAirports"
  },
  {
    "id": 1928,
    "name": "Andros Town Airport",
    "city": "Andros Town",
    "country": "Bahamas",
    "isoCountry": "Bahamas",
    "iata": "ASD",
    "icao": "MYAF",
    "latitude": 24.697900772094727,
    "longitude": -77.79560089111328,
    "elevationFt": 5,
    "timezone": "America/Nassau",
    "tzOffsetHours": -5,
    "dst": "U",
    "type": "airport",
    "source": "OurAirports"
  },
  {
    "id": 11009,
    "name": "Captain Auguste George Airport",
    "city": "Anegada",
    "country": "British Virgin Islands",
    "isoCountry": "British Virgin Islands",
    "iata": "NGD",
    "icao": "TUPA",
    "latitude": 18.72719955444336,
    "longitude": -64.32969665527344,
    "elevationFt": 9,
    "tzOffsetHours": -4,
    "dst": "U",
    "type": "airport",
    "source": "OurAirports"
  },
  {
    "id": 5914,
    "name": "Aneityum Airport",
    "city": "Anelghowhat",
    "country": "Vanuatu",
    "isoCountry": "Vanuatu",
    "iata": "AUY",
    "icao": "NVVA",
    "latitude": -20.2492008209,
    "longitude": 169.770996094,
    "elevationFt": 7,
    "timezone": "Pacific/Efate",
    "tzOffsetHours": 11,
    "dst": "U",
    "type": "airport",
    "source": "OurAirports"
  },
  {
    "id": 5881,
    "name": "Mata'aho Airport",
    "city": "Angaha, Niuafo'ou Island",
    "country": "Tonga",
    "isoCountry": "Tonga",
    "iata": "NFO",
    "icao": "NFTO",
    "latitude": -15.5707998276,
    "longitude": -175.632995605,
    "elevationFt": 160,
    "timezone": "Pacific/Tongatapu",
    "tzOffsetHours": 13,
    "dst": "U",
    "type": "airport",
    "source": "OurAirports"
  },
  {
    "id": 4140,
    "name": "Diosdado Macapagal International Airport",
    "city": "Angeles City",
    "country": "Philippines",
    "isoCountry": "Philippines",
    "iata": "CRK",
    "icao": "RPLC",
    "latitude": 15.186,
    "longitude": 120.559998,
    "elevationFt": 484,
    "timezone": "Asia/Manila",
    "tzOffsetHours": 8,
    "dst": "N",
    "type": "airport",
    "source": "OurAirports"
  },
  {
    "id": 5597,
    "name": "Ängelholm-Helsingborg Airport",
    "city": "Ängelholm",
    "country": "Sweden",
    "isoCountry": "Sweden",
    "iata": "AGH",
    "icao": "ESTA",
    "latitude": 56.29610061645508,
    "longitude": 12.847100257873535,
    "elevationFt": 68,
    "timezone": "Europe/Stockholm",
    "tzOffsetHours": 1,
    "dst": "E",
    "type": "airport",
    "source": "OurAirports"
  },
  {
    "id": 5574,
    "name": "Anglesey Airport",
    "city": "Angelsey",
    "country": "United Kingdom",
    "isoCountry": "United Kingdom",
    "iata": "VLY",
    "icao": "EGOV",
    "latitude": 53.2481002808,
    "longitude": -4.53533983231,
    "elevationFt": 37,
    "timezone": "Europe/London",
    "tzOffsetHours": 0,
    "dst": "E",
    "type": "airport",
    "source": "OurAirports"
  },
  {
    "id": 5783,
    "name": "Angers-Loire Airport",
    "city": "Angers/Marcé",
    "country": "France",
    "isoCountry": "France",
    "iata": "ANE",
    "icao": "LFJR",
    "latitude": 47.560299,
    "longitude": -0.312222,
    "elevationFt": 194,
    "timezone": "Europe/Paris",
    "tzOffsetHours": 1,
    "dst": "E",
    "type": "airport",
    "source": "OurAirports"
  },